$PSRFTXTVersion GSW3.1.1H_3.1.00.07-C23P1.00a_20060630 *46
$PSRFTXTTOW:  0*09
$PSRFTXTWK:   1340*4F
$PSRFTXTPOS:  6378137 0 0*06
$PSRFTXTCLK:  96250*09
$PSRFTXTCHNL: 12*5F
$PSRFTXTBaud rate: 9600  System clock: 1124.403MHz*5D
$GPGGA,235948.050,,,,,0,00,,,M,0.0,M,,0000*52
$GPGSA,A,1,,,,,,,,,,,,,,,*1E
$GPRMC,235948.050,V,,,,,,,100905,,,N*44
$GPGGA,235949.058,,,,,0,00,,,M,0.0,M,,0000*5B
$GPGSA,A,1,,,,,,,,,,,,,,,*1E
$GPRMC,235949.058,V,,,,,,,100905,,,N*4D
$GPGGA,235950.041,,,,,0,00,,,M,0.0,M,,0000*5B
$GPGSA,A,1,,,,,,,,,,,,,,,*1E
$GPRMC,235950.041,V,,,,,,,100905,,,N*4D
$GPGGA,235951.041,,,,,0,00,,,M,0.0,M,,0000*5A
$GPGSA,A,1,,,,,,,,,,,,,,,*1E
$GPRMC,235951.041,V,,,,,,,100905,,,N*4C
$GPGGA,235952.041,,,,,0,00,,,M,0.0,M,,0000*59
$GPGSA,A,1,,,,,,,,,,,,,,,*1E
$GPGSV,3,1,12,20,00,000,,10,00,000,17,25,00,000,,27,00,000,*7F
$GPGSV,3,2,12,03,00,000,,31,00,000,,24,00,000,,15,00,000,*78
$GPGSV,3,3,12,16,00,000,,05,00,000,18,01,00,000,,26,00,000,*74
$GPRMC,235952.041,V,,,,,,,100905,,,N*4F
$GPGGA,235953.041,,,,,0,00,,,M,0.0,M,,0000*58
$GPGSA,A,1,,,,,,,,,,,,,,,*1E
$GPRMC,235953.041,V,,,,,,,100905,,,N*4E
$GPGGA,235954.041,,,,,0,00,,,M,0.0,M,,0000*5F
$GPGSA,A,1,,,,,,,,,,,,,,,*1E
$GPRMC,235954.041,V,,,,,,,100905,,,N*49
$GPGGA,235955.041,,,,,0,00,,,M,0.0,M,,0000*5E
$GPGSA,A,1,,,,,,,,,,,,,,,*1E
$GPRMC,235955.041,V,,,,,,,100905,,,N*48
$GPGGA,235956.041,,,,,0,00,,,M,0.0,M,,0000*5D
$GPGSA,A,1,,,,,,,,,,,,,,,*1E
$GPRMC,235956.041,V,,,,,,,100905,,,N*4B
$GPGGA,235957.041,,,,,0,00,,,M,0.0,M,,0000*5C
$GPGSA,A,1,,,,,,,,,,,,,,,*1E
$GPGSV,3,1,12,20,00,000,,10,00,000,,25,00,000,,27,00,000,*79
$GPGSV,3,2,12,03,00,000,,31,00,000,19,24,00,000,,15,00,000,*70
$GPGSV,3,3,12,16,00,000,,05,00,000,,01,00,000,,26,00,000,14*78
$GPRMC,235957.041,V,,,,,,,100905,,,N*4A
$GPGGA,235958.041,,,,,0,00,,,M,0.0,M,,0000*53
$GPGSA,A,1,,,,,,,,,,,,,,,*1E
$GPRMC,235958.041,V,,,,,,,100905,,,N*45
$GPGGA,235959.041,,,,,0,00,,,M,0.0,M,,0000*52
$GPGSA,A,1,,,,,,,,,,,,,,,*1E
$GPRMC,235959.041,V,,,,,,,100905,,,N*44
$GPGGA,000000.041,,,,,0,00,,,M,0.0,M,,0000*53
$GPGSA,A,1,,,,,,,,,,,,,,,*1E
$GPRMC,000000.041,V,,,,,,,211214,,,N*4D
$GPGGA,183454.650,,,,,0,00,,,M,0.0,M,,0000*5A
$GPGSA,A,1,,,,,,,,,,,,,,,*1E
$GPRMC,183454.650,V,,,,,,,241214,,,N*41
$GPGGA,183455.550,,,,,0,00,,,M,0.0,M,,0000*58
$GPGSA,A,1,,,,,,,,,,,,,,,*1E
$GPGSV,3,1,12,30,77,000,45,08,57,000,,07,56,000,48,19,48,000,38*77
$GPGSV,3,2,12,28,44,000,41,13,40,000,43,26,30,000,,11,27,000,*77
$GPGSV,3,3,12,27,24,000,,04,19,000,,01,05,000,,09,04,000,*7C
$GPRMC,183455.550,V,,,,,,,241214,,,N*43
$GPGGA,183456.550,,,,,0,00,,,M,0.0,M,,0000*5B
$GPGSA,A,1,,,,,,,,,,,,,,,*1E
$GPRMC,183456.550,V,,,,,,,241214,,,N*40
$GPGGA,183457.550,,,,,0,00,,,M,0.0,M,,0000*5A
$GPGSA,A,1,,,,,,,,,,,,,,,*1E
$GPRMC,183457.550,V,,,,,,,241214,,,N*41
$GPGGA,183458.550,,,,,0,00,,,M,0.0,M,,0000*55
$GPGSA,A,1,,,,,,,,,,,,,,,*1E
$GPRMC,183458.550,V,,,,,,,241214,,,N*4E
$GPGGA,183459.550,,,,,0,00,,,M,0.0,M,,0000*54
$GPGSA,A,1,,,,,,,,,,,,,,,*1E
$GPRMC,183459.550,V,,,,,,,241214,,,N*4F
$GPGGA,183500.550,,,,,0,00,,,M,0.0,M,,0000*59
$GPGSA,A,1,,,,,,,,,,,,,,,*1E
$GPGSV,3,1,12,30,77,000,45,08,57,000,,07,56,000,49,19,48,000,38*76
$GPGSV,3,2,12,28,44,000,42,13,40,000,43,26,30,000,36,11,27,000,*71
$GPGSV,3,3,12,27,24,000,,04,19,000,,01,05,000,,09,04,000,*7C
$GPRMC,183500.550,V,,,,,,,241214,,,N*42
$GPGGA,183501.550,,,,,0,00,,,M,0.0,M,,0000*58
$GPGSA,A,1,,,,,,,,,,,,,,,*1E
$GPRMC,183501.550,V,,,,,,,241214,,,N*43
$GPGGA,183502.550,,,,,0,00,,,M,0.0,M,,0000*5B
$GPGSA,A,1,,,,,,,,,,,,,,,*1E
$GPRMC,183502.550,V,,,,,,,241214,,,N*40
$GPGGA,183503.550,,,,,0,00,,,M,0.0,M,,0000*5A
$GPGSA,A,1,,,,,,,,,,,,,,,*1E
$GPRMC,183503.550,V,,,,,,,241214,,,N*41
$GPGGA,183504.550,,,,,0,00,,,M,0.0,M,,0000*5D
$GPGSA,A,1,,,,,,,,,,,,,,,*1E
$GPRMC,183504.550,V,,,,,,,241214,,,N*46
$GPGGA,183505.550,5553.8102,N,03736.5230,E,1,05,2.8,212.2,M,14.5,M,,0000*52
$GPGSA,A,3,30,13,19,07,28,,,,,,,,5.3,2.8,4.6*38
$GPGSV,3,1,12,13,71,256,43,28,65,180,42,30,64,091,44,07,30,091,49*74
$GPGSV,3,2,12,19,23,045,38,26,58,286,36,08,29,085,,05,23,236,*75
$GPGSV,3,3,12,15,18,309,37,27,07,022,15,11,03,090,,17,01,162,*77
$GPRMC,183505.550,A,5553.8102,N,03736.5230,E,0.12,115.99,241214,,,A*6A
$GPGGA,183506.000,5553.8107,N,03736.5212,E,1,05,2.8,210.2,M,14.5,M,,0000*56
$GPGSA,A,3,30,13,19,07,28,,,,,,,,5.3,2.8,4.6*38
$GPRMC,183506.000,A,5553.8107,N,03736.5212,E,0.12,46.32,241214,,,A*5A
$GPGGA,183507.002,5553.8109,N,03736.5220,E,1,05,2.8,210.7,M,14.5,M,,0000*5F
$GPGSA,A,3,30,13,19,07,28,,,,,,,,5.3,2.8,4.6*38
$GPRMC,183507.002,A,5553.8109,N,03736.5220,E,0.14,1.94,241214,,,A*6F
$GPGGA,183508.000,5553.8111,N,03736.5221,E,1,05,2.8,210.9,M,14.5,M,,0000*54
$GPGSA,A,3,30,13,19,07,28,,,,,,,,5.3,2.8,4.6*38
$GPRMC,183508.000,A,5553.8111,N,03736.5221,E,0.00,,241214,,,A*7D
$GPGGA,183509.000,5553.8111,N,03736.5221,E,1,05,2.8,210.9,M,14.5,M,,0000*55
$GPGSA,A,3,30,13,19,07,28,,,,,,,,5.3,2.8,4.6*38
$GPRMC,183509.000,A,5553.8111,N,03736.5221,E,0.00,,241214,,,A*7C
$GPGGA,183510.000,5553.8111,N,03736.5221,E,1,05,2.8,210.9,M,14.5,M,,0000*5D
$GPGSA,A,3,30,13,19,07,28,,,,,,,,5.3,2.8,4.6*38
$GPGSV,3,1,12,13,71,256,42,28,65,180,42,30,64,091,43,07,30,091,49*72
$GPGSV,3,2,12,19,23,045,38,26,58,286,36,08,29,085,,05,23,236,25*72
$GPGSV,3,3,12,15,18,309,37,27,07,022,,11,03,090,27,17,01,162,*76
$GPRMC,183510.000,A,5553.8111,N,03736.5221,E,0.00,,241214,,,A*74
$GPGGA,183511.000,5553.8111,N,03736.5221,E,1,05,2.8,210.9,M,14.5,M,,0000*5C
$GPGSA,A,3,30,13,19,07,28,,,,,,,,5.3,2.8,4.6*38
$GPRMC,183511.000,A,5553.8111,N,03736.5221,E,0.00,,241214,,,A*75
$GPGGA,183512.000,5553.8111,N,03736.5221,E,1,05,2.8,210.9,M,14.5,M,,0000*5F
$GPGSA,A,3,30,13,19,07,28,,,,,,,,5.3,2.8,4.6*38
$GPRMC,183512.000,A,5553.8111,N,03736.5221,E,0.00,,241214,,,A*76
$GPGGA,183513.000,5553.8111,N,03736.5221,E,1,05,2.8,210.9,M,14.5,M,,0000*5E
$GPGSA,A,3,30,13,19,07,28,,,,,,,,5.3,2.8,4.6*38
$GPRMC,183513.000,A,5553.8111,N,03736.5221,E,0.00,,241214,,,A*77
$GPGGA,183514.000,5553.8111,N,03736.5221,E,1,05,2.8,210.9,M,14.5,M,,0000*59
$GPGSA,A,3,30,13,19,07,28,,,,,,,,5.3,2.8,4.6*38
$GPRMC,183514.000,A,5553.8111,N,03736.5221,E,0.00,,241214,,,A*70
$GPGGA,183515.000,5553.8111,N,03736.5221,E,1,05,2.8,210.9,M,14.5,M,,0000*58
$GPGSA,A,3,30,13,19,07,28,,,,,,,,5.3,2.8,4.6*38
$GPGSV,3,1,12,13,71,256,42,28,65,180,43,30,64,091,42,07,30,091,49*72
$GPGSV,3,2,12,19,23,045,38,26,58,286,36,08,29,085,,05,23,236,*75
$GPGSV,3,3,12,15,18,309,37,27,07,022,24,11,03,090,28,17,01,162,*7F
$GPRMC,183515.000,A,5553.8111,N,03736.5221,E,0.00,,241214,,,A*71
$GPGGA,183516.000,5553.8111,N,03736.5221,E,1,05,2.8,210.9,M,14.5,M,,0000*5B
$GPGSA,A,3,30,13,19,07,28,,,,,,,,5.3,2.8,4.6*38
$GPRMC,183516.000,A,5553.8111,N,03736.5221,E,0.00,,241214,,,A*72
$GPGGA,183517.000,5553.8111,N,03736.5221,E,1,05,2.8,210.9,M,14.5,M,,0000*5A
$GPGSA,A,3,30,13,19,07,28,,,,,,,,5.3,2.8,4.6*38
$GPRMC,183517.000,A,5553.8111,N,03736.5221,E,0.00,,241214,,,A*73
$GPGGA,183518.000,5553.8111,N,03736.5221,E,1,05,2.8,210.9,M,14.5,M,,0000*55
$GPGSA,A,3,30,13,19,07,28,,,,,,,,5.3,2.8,4.6*38
$GPRMC,183518.000,A,5553.8111,N,03736.5221,E,0.00,,241214,,,A*7C
$GPGGA,183519.000,5553.8111,N,03736.5221,E,1,05,2.8,210.9,M,14.5,M,,0000*54
$GPGSA,A,3,30,13,19,07,28,,,,,,,,5.3,2.8,4.6*38
$GPRMC,183519.000,A,5553.8111,N,03736.5221,E,0.00,,241214,,,A*7D
$GPGGA,183520.000,5553.8111,N,03736.5221,E,1,05,2.8,210.9,M,14.5,M,,0000*5E
$GPGSA,A,3,30,13,19,07,28,,,,,,,,5.3,2.8,4.6*38
$GPGSV,3,1,12,13,71,256,41,28,65,179,43,30,64,091,42,26,58,286,36*76
$GPGSV,3,2,12,07,30,091,49,08,28,085,,19,23,045,38,05,23,236,*75
$GPGSV,3,3,12,15,18,309,36,27,07,022,,11,03,090,23,17,01,162,*73
$GPRMC,183520.000,A,5553.8111,N,03736.5221,E,0.00,,241214,,,A*77
$GPGGA,183521.000,5553.8111,N,03736.5221,E,1,05,2.8,210.9,M,14.5,M,,0000*5F
$GPGSA,A,3,30,13,19,07,28,,,,,,,,5.3,2.8,4.6*38
$GPRMC,183521.000,A,5553.8111,N,03736.5221,E,0.00,,241214,,,A*76
$GPGGA,183522.000,5553.8111,N,03736.5221,E,1,05,2.8,210.9,M,14.5,M,,0000*5C
$GPGSA,A,3,30,13,19,07,28,,,,,,,,5.3,2.8,4.6*38
$GPRMC,183522.000,A,5553.8111,N,03736.5221,E,0.00,,241214,,,A*75
$GPGGA,183523.000,5553.8111,N,03736.5221,E,1,05,2.8,210.9,M,14.5,M,,0000*5D
$GPGSA,A,3,30,13,19,07,28,,,,,,,,5.3,2.8,4.6*38
$GPRMC,183523.000,A,5553.8111,N,03736.5221,E,0.00,,241214,,,A*74
$GPGGA,183524.000,5553.8111,N,03736.5221,E,1,05,2.8,210.9,M,14.5,M,,0000*5A
$GPGSA,A,3,30,13,19,07,28,,,,,,,,5.3,2.8,4.6*38
$GPRMC,183524.000,A,5553.8111,N,03736.5221,E,0.00,,241214,,,A*73
$GPGGA,183525.000,5553.8111,N,03736.5221,E,1,05,2.8,210.9,M,14.5,M,,0000*5B
$GPGSA,A,3,30,13,19,07,28,,,,,,,,5.3,2.8,4.6*38
$GPGSV,3,1,12,13,71,256,28,28,65,179,32,30,64,091,37,26,58,286,28*72
$GPGSV,3,2,12,07,30,091,38,08,28,085,,19,23,045,32,05,23,236,*79
$GPGSV,3,3,12,15,18,309,26,27,07,022,,11,03,090,17,17,01,162,*75
$GPRMC,183525.000,A,5553.8111,N,03736.5221,E,0.00,,241214,,,A*72
$GPGGA,183526.000,5553.8111,N,03736.5221,E,1,05,2.8,210.9,M,14.5,M,,0000*58
$GPGSA,A,3,30,13,19,07,28,,,,,,,,5.3,2.8,4.6*38
$GPRMC,183526.000,A,5553.8111,N,03736.5221,E,0.00,,241214,,,A*71
$GPGGA,183527.000,5553.8111,N,03736.5221,E,1,05,2.8,210.9,M,14.5,M,,0000*59
$GPGSA,A,3,30,13,19,07,28,,,,,,,,5.3,2.8,4.6*38
$GPRMC,183527.000,A,5553.8111,N,03736.5221,E,0.00,,241214,,,A*70
$GPGGA,183528.000,5553.8111,N,03736.5221,E,1,05,2.8,210.9,M,14.5,M,,0000*56
$GPGSA,A,3,30,13,19,07,28,,,,,,,,5.3,2.8,4.6*38
$GPRMC,183528.000,A,5553.8111,N,03736.5221,E,0.00,,241214,,,A*7F
$GPGGA,183529.000,5553.8111,N,03736.5221,E,1,05,2.8,210.9,M,14.5,M,,0000*57
$GPGSA,A,3,30,13,19,07,28,,,,,,,,5.3,2.8,4.6*38
$GPRMC,183529.000,A,5553.8111,N,03736.5221,E,0.00,,241214,,,A*7E
$GPGGA,183530.000,5553.8111,N,03736.5221,E,1,05,2.8,210.9,M,14.5,M,,0000*5F
$GPGSA,A,3,30,13,19,07,28,,,,,,,,5.3,2.8,4.6*38
$GPGSV,3,1,12,13,71,256,33,28,65,179,32,30,64,091,38,26,58,286,35*7B
$GPGSV,3,2,12,07,30,091,38,08,28,085,,19,23,045,30,05,23,236,22*7B
$GPGSV,3,3,12,15,18,309,30,27,07,022,25,11,03,090,17,17,01,162,*75
$GPRMC,183530.000,A,5553.8111,N,03736.5221,E,0.00,,241214,,,A*76
$GPGGA,183531.000,5553.8111,N,03736.5221,E,1,05,2.8,210.9,M,14.5,M,,0000*5E
$GPGSA,A,3,30,13,19,07,28,,,,,,,,5.4,2.8,4.6*3F
$GPRMC,183531.000,A,5553.8111,N,03736.5221,E,0.00,,241214,,,A*77
$GPGGA,183532.000,5553.8111,N,03736.5221,E,1,05,2.8,210.9,M,14.5,M,,0000*5D
$GPGSA,A,3,30,13,19,07,28,,,,,,,,5.4,2.8,4.6*3F
$GPRMC,183532.000,A,5553.8111,N,03736.5221,E,0.00,,241214,,,A*74
$GPGGA,183533.000,5553.8111,N,03736.5221,E,1,05,2.8,210.9,M,14.5,M,,0000*5C
$GPGSA,A,3,30,13,19,07,28,,,,,,,,5.4,2.8,4.6*3F
$GPRMC,183533.000,A,5553.8111,N,03736.5221,E,0.00,,241214,,,A*75
$GPGGA,183534.000,5553.8111,N,03736.5221,E,1,05,2.8,210.9,M,14.5,M,,0000*5B
$GPGSA,A,3,30,13,19,07,28,,,,,,,,5.4,2.8,4.6*3F
$GPRMC,183534.000,A,5553.8111,N,03736.5221,E,0.00,,241214,,,A*72
$GPGGA,183535.000,5553.8111,N,03736.5221,E,1,05,2.8,210.9,M,14.5,M,,0000*5A
$GPGSA,A,3,30,13,19,07,28,,,,,,,,5.4,2.8,4.6*3F
$GPGSV,3,1,12,13,71,256,36,28,65,179,25,30,64,091,42,26,58,286,25*74
$GPGSV,3,2,12,07,30,091,33,08,28,085,,19,23,045,32,05,23,236,*72
$GPGSV,3,3,12,15,18,309,30,27,07,022,26,11,03,090,21,17,01,162,*73
$GPRMC,183535.000,A,5553.8111,N,03736.5221,E,0.00,,241214,,,A*73
$GPGGA,183536.000,5553.8111,N,03736.5221,E,1,05,2.8,210.9,M,14.5,M,,0000*59
$GPGSA,A,3,30,13,19,07,28,,,,,,,,5.4,2.8,4.6*3F
$GPRMC,183536.000,A,5553.8111,N,03736.5221,E,0.00,,241214,,,A*70
$GPGGA,183537.000,5553.8111,N,03736.5221,E,1,05,2.8,210.9,M,14.5,M,,0000*58
$GPGSA,A,3,30,13,19,07,28,,,,,,,,5.4,2.8,4.6*3F
$GPRMC,183537.000,A,5553.8111,N,03736.5221,E,0.00,,241214,,,A*71
$GPGGA,183538.000,5553.8111,N,03736.5221,E,1,05,2.8,210.9,M,14.5,M,,0000*57
$GPGSA,A,3,30,13,19,07,28,,,,,,,,5.4,2.8,4.6*3F
$GPRMC,183538.000,A,5553.8111,N,03736.5221,E,0.00,,241214,,,A*7E
$GPGGA,183539.000,5553.8111,N,03736.5221,E,1,05,2.8,210.9,M,14.5,M,,0000*56
$GPGSA,A,3,30,13,19,07,28,,,,,,,,5.4,2.8,4.6*3F
$GPRMC,183539.000,A,5553.8111,N,03736.5221,E,0.00,,241214,,,A*7F
$GPGGA,183540.000,5553.8111,N,03736.5221,E,1,05,2.8,210.9,M,14.5,M,,0000*58
$GPGSA,A,3,30,13,19,07,28,,,,,,,,5.4,2.8,4.6*3F
$GPGSV,3,1,12,13,71,256,31,28,65,179,30,30,64,091,41,26,58,286,28*79
$GPGSV,3,2,12,07,30,091,34,08,28,085,,19,23,045,32,05,23,236,*75
$GPGSV,3,3,12,15,18,309,31,27,07,022,27,11,03,090,20,17,01,162,*72
$GPRMC,183540.000,A,5553.8111,N,03736.5221,E,0.00,,241214,,,A*71
$GPGGA,183541.000,5553.8111,N,03736.5221,E,1,05,2.8,210.9,M,14.5,M,,0000*59
$GPGSA,A,3,30,13,19,07,28,,,,,,,,5.4,2.8,4.6*3F
$GPRMC,183541.000,A,5553.8111,N,03736.5221,E,0.00,,241214,,,A*70
$GPGGA,183542.000,5553.8111,N,03736.5221,E,1,05,2.8,210.9,M,14.5,M,,0000*5A
$GPGSA,A,3,30,13,19,07,28,,,,,,,,5.4,2.8,4.6*3F
$GPRMC,183542.000,A,5553.8111,N,03736.5221,E,0.00,,241214,,,A*73
$GPGGA,183543.000,5553.8111,N,03736.5221,E,1,05,2.8,210.9,M,14.5,M,,0000*5B
$GPGSA,A,3,30,13,19,07,28,,,,,,,,5.4,2.8,4.6*3F
$GPRMC,183543.000,A,5553.8111,N,03736.5221,E,0.00,,241214,,,A*72
$GPGGA,183544.000,5553.8111,N,03736.5221,E,1,05,2.8,210.9,M,14.5,M,,0000*5C
$GPGSA,A,3,30,13,19,07,28,,,,,,,,5.4,2.8,4.6*3F
$GPRMC,183544.000,A,5553.8111,N,03736.5221,E,0.00,,241214,,,A*75
$GPGGA,183545.000,5553.8111,N,03736.5221,E,1,05,2.8,210.9,M,14.5,M,,0000*5D
$GPGSA,A,3,30,13,19,07,28,,,,,,,,5.4,2.8,4.6*3F
$GPGSV,3,1,12,13,71,256,23,28,65,179,24,30,64,091,40,26,58,286,29*7F
$GPGSV,3,2,12,07,30,091,34,08,28,085,,19,23,045,23,05,23,236,*75
$GPGSV,3,3,12,15,18,309,26,27,07,022,27,11,03,090,24,17,01,162,*70
$GPRMC,183545.000,A,5553.8111,N,03736.5221,E,0.00,,241214,,,A*74
$GPGGA,183546.000,5553.8111,N,03736.5221,E,1,05,2.8,210.9,M,14.5,M,,0000*5E
$GPGSA,A,3,30,13,19,07,28,,,,,,,,5.4,2.8,4.6*3F
$GPRMC,183546.000,A,5553.8111,N,03736.5221,E,0.00,,241214,,,A*77
$GPGGA,183547.000,5553.8111,N,03736.5221,E,1,05,2.8,210.9,M,14.5,M,,0000*5F
$GPGSA,A,3,30,13,19,07,28,,,,,,,,5.4,2.8,4.6*3F
$GPRMC,183547.000,A,5553.8111,N,03736.5221,E,0.00,,241214,,,A*76
$GPGGA,183548.000,5553.8111,N,03736.5221,E,1,05,2.8,210.9,M,14.5,M,,0000*50
$GPGSA,A,3,30,13,19,07,28,,,,,,,,5.4,2.8,4.6*3F
$GPRMC,183548.000,A,5553.8111,N,03736.5221,E,0.00,,241214,,,A*79
$GPGGA,183549.000,5553.8111,N,03736.5221,E,1,05,2.8,210.9,M,14.5,M,,0000*51
$GPGSA,A,3,30,13,19,07,28,,,,,,,,5.4,2.8,4.6*3F
$GPRMC,183549.000,A,5553.8111,N,03736.5221,E,0.00,,241214,,,A*78
$GPGGA,183550.000,5553.8111,N,03736.5221,E,1,05,2.8,210.9,M,14.5,M,,0000*59
$GPGSA,A,3,30,13,19,07,28,,,,,,,,5.4,2.8,4.6*3F
$GPGSV,3,1,12,13,71,255,35,28,65,179,32,30,63,091,40,26,58,285,23*72
$GPGSV,3,2,12,07,29,091,42,08,28,085,,19,23,045,34,05,23,236,*7A
$GPGSV,3,3,12,15,18,309,26,27,07,022,35,11,03,090,24,17,02,162,*70
$GPRMC,183550.000,A,5553.8111,N,03736.5221,E,0.00,,241214,,,A*70
$GPGGA,183551.000,5553.8111,N,03736.5221,E,1,05,2.8,210.9,M,14.5,M,,0000*58
$GPGSA,A,3,30,13,19,07,28,,,,,,,,5.4,2.8,4.6*3F
$GPRMC,183551.000,A,5553.8111,N,03736.5221,E,0.00,,241214,,,A*71
$GPGGA,183552.000,5553.8111,N,03736.5221,E,1,05,2.8,210.9,M,14.5,M,,0000*5B
$GPGSA,A,3,30,13,19,07,28,,,,,,,,5.4,2.8,4.6*3F
$GPRMC,183552.000,A,5553.8111,N,03736.5221,E,0.00,,241214,,,A*72
$GPGGA,183553.000,5553.8111,N,03736.5221,E,1,05,2.8,210.9,M,14.5,M,,0000*5A
$GPGSA,A,3,30,13,19,07,28,,,,,,,,5.4,2.8,4.6*3F
$GPRMC,183553.000,A,5553.8111,N,03736.5221,E,0.00,,241214,,,A*73
$GPGGA,183554.000,5553.8118,N,03736.5308,E,1,05,2.8,220.9,M,14.5,M,,0000*5D
$GPGSA,A,3,30,13,19,07,28,,,,,,,,5.4,2.8,4.6*3F
$GPRMC,183554.000,A,5553.8118,N,03736.5308,E,2.61,139.18,241214,,,A*6E
$GPGGA,183555.000,5553.8106,N,03736.5323,E,1,05,2.8,221.7,M,14.5,M,,0000*55
$GPGSA,A,3,30,13,19,07,28,,,,,,,,5.4,2.8,4.6*3F
$GPGSV,3,1,12,13,71,255,31,28,65,179,36,30,63,091,37,26,58,285,32*72
$GPGSV,3,2,12,07,29,091,38,08,28,085,,19,23,045,34,05,23,236,*77
$GPGSV,3,3,12,15,18,309,33,27,07,022,28,11,03,090,23,17,02,162,*7F
$GPRMC,183555.000,A,5553.8106,N,03736.5323,E,4.08,143.61,241214,,,A*63
$GPGGA,183556.000,5553.8092,N,03736.5339,E,1,05,2.8,222.4,M,14.5,M,,0000*51
$GPGSA,A,3,30,13,19,07,28,,,,,,,,5.4,2.8,4.6*3F
$GPRMC,183556.000,A,5553.8092,N,03736.5339,E,6.66,145.23,241214,,,A*6D
$GPGGA,183557.000,5553.8074,N,03736.5367,E,1,05,2.8,223.5,M,14.5,M,,0000*53
$GPGSA,A,3,30,13,19,07,28,,,,,,,,5.4,2.8,4.6*3F
$GPRMC,183557.000,A,5553.8074,N,03736.5367,E,7.59,135.93,241214,,,A*6E
$GPGGA,183558.000,5553.8059,N,03736.5399,E,1,05,2.8,223.5,M,14.5,M,,0000*52
$GPGSA,A,3,30,13,19,07,28,,,,,,,,5.4,2.8,4.6*3F
$GPRMC,183558.000,A,5553.8059,N,03736.5399,E,9.90,131.56,241214,,,A*69
$GPGGA,183559.000,5553.8042,N,03736.5447,E,1,05,2.8,223.8,M,14.5,M,,0000*50
$GPGSA,A,3,30,13,19,07,28,,,,,,,,5.4,2.8,4.6*3F
$GPRMC,183559.000,A,5553.8042,N,03736.5447,E,12.60,129.79,241214,,,A*57
$GPGGA,183600.000,5553.8024,N,03736.5506,E,1,05,2.8,224.5,M,14.5,M,,0000*51
$GPGSA,A,3,30,13,19,07,28,,,,,,,,5.4,2.8,4.6*3F
$GPGSV,3,1,12,13,71,255,33,28,65,179,31,30,63,091,36,26,58,285,31*75
$GPGSV,3,2,12,07,29,091,37,08,28,085,,19,23,045,37,05,23,236,*7B
$GPGSV,3,3,12,15,18,309,26,27,07,022,31,11,03,090,22,17,02,162,*72
$GPRMC,183600.000,A,5553.8024,N,03736.5506,E,14.10,126.94,241214,,,A*51
$GPGGA,183601.000,5553.7993,N,03736.5568,E,1,05,2.8,223.4,M,14.5,M,,0000*54
$GPGSA,A,3,30,13,19,07,28,,,,,,,,5.4,2.8,4.6*3F
$GPRMC,183601.000,A,5553.7993,N,03736.5568,E,16.21,130.62,241214,,,A*5C
$GPGGA,183602.000,5553.7969,N,03736.5640,E,1,05,2.8,223.4,M,14.5,M,,0000*5B
$GPGSA,A,3,30,13,19,07,28,,,,,,,,5.4,2.8,4.6*3F
$GPRMC,183602.000,A,5553.7969,N,03736.5640,E,17.96,127.99,241214,,,A*5C
$GPGGA,183603.000,5553.7935,N,03736.5718,E,1,05,2.8,222.4,M,14.5,M,,0000*5E
$GPGSA,A,3,30,13,19,07,28,,,,,,,,5.4,2.8,4.6*3F
$GPRMC,183603.000,A,5553.7935,N,03736.5718,E,18.56,130.64,241214,,,A*5F
$GPGGA,183604.000,5553.7900,N,03736.5793,E,1,05,2.8,221.0,M,14.5,M,,0000*5B
$GPGSA,A,3,30,13,19,07,28,,,,,,,,5.4,2.8,4.6*3F
$GPRMC,183604.000,A,5553.7900,N,03736.5793,E,19.32,130.55,241214,,,A*5C
$GPGGA,183605.000,5553.7871,N,03736.5871,E,1,05,2.8,221.3,M,14.5,M,,0000*5D
$GPGSA,A,3,30,13,19,07,28,,,,,,,,5.4,2.8,4.6*3F
$GPGSV,3,1,12,13,71,255,33,28,65,179,30,30,63,091,40,26,58,285,32*76
$GPGSV,3,2,12,07,29,091,37,08,28,085,,19,23,045,39,05,23,236,*75
$GPGSV,3,3,12,15,18,309,27,27,07,022,31,11,03,090,21,17,02,162,*70
$GPRMC,183605.000,A,5553.7871,N,03736.5871,E,18.77,128.70,241214,,,A*57
$GPGGA,183606.000,5553.7838,N,03736.5947,E,1,05,2.8,220.6,M,14.5,M,,0000*53
$GPGSA,A,3,30,13,19,07,28,,,,,,,,5.4,2.8,4.6*3F
$GPRMC,183606.000,A,5553.7838,N,03736.5947,E,20.18,128.99,241214,,,A*58
$GPGGA,183607.000,5553.7801,N,03736.6030,E,1,05,2.8,219.8,M,14.5,M,,0000*56
$GPGSA,A,3,30,13,19,07,28,,,,,,,,5.4,2.8,4.6*3F
$GPRMC,183607.000,A,5553.7801,N,03736.6030,E,20.42,130.33,241214,,,A*5F
$GPGGA,183608.000,5553.7765,N,03736.6112,E,1,05,2.8,219.4,M,14.5,M,,0000*59
$GPGSA,A,3,30,13,19,07,28,,,,,,,,5.4,2.8,4.6*3F
$GPRMC,183608.000,A,5553.7765,N,03736.6112,E,21.97,131.01,241214,,,A*55
$GPGGA,183609.000,5553.7721,N,03736.6195,E,1,05,2.8,218.2,M,14.5,M,,0000*50
$GPGSA,A,3,30,13,19,07,28,,,,,,,,5.4,2.8,4.6*3F
$GPRMC,183609.000,A,5553.7721,N,03736.6195,E,22.21,130.94,241214,,,A*58
$GPGGA,183610.000,5553.7680,N,03736.6286,E,1,05,2.8,217.3,M,14.5,M,,0000*5D
$GPGSA,A,3,30,13,19,07,28,,,,,,,,5.4,2.8,4.6*3F
$GPGSV,3,1,12,13,71,255,32,28,65,179,29,30,63,091,40,26,58,285,32*7F
$GPGSV,3,2,12,07,29,091,37,08,28,085,,19,23,045,39,05,23,236,*75
$GPGSV,3,3,12,15,18,309,27,27,07,022,32,11,03,090,20,17,02,162,*72
$GPRMC,183610.000,A,5553.7680,N,03736.6286,E,22.97,129.70,241214,,,A*54
$GPGGA,183611.000,5553.7639,N,03736.6376,E,1,05,2.8,216.3,M,14.5,M,,0000*51
$GPGSA,A,3,30,13,19,07,28,,,,,,,,5.4,2.8,4.6*3F
$GPRMC,183611.000,A,5553.7639,N,03736.6376,E,21.58,130.55,241214,,,A*56
$GPGGA,183612.000,5553.7597,N,03736.6462,E,1,05,2.8,215.1,M,14.5,M,,0000*56
$GPGSA,A,3,30,13,19,07,28,,,,,,,,5.4,2.8,4.6*3F
$GPRMC,183612.000,A,5553.7597,N,03736.6462,E,21.84,130.25,241214,,,A*56
$GPGGA,183613.000,5553.7555,N,03736.6548,E,1,05,2.8,213.9,M,14.5,M,,0000*5E
$GPGSA,A,3,30,13,19,07,28,,,,,,,,5.4,2.8,4.6*3F
$GPRMC,183613.000,A,5553.7555,N,03736.6548,E,20.70,130.54,241214,,,A*5C
$GPGGA,183614.000,5553.7512,N,03736.6630,E,1,05,2.8,212.5,M,14.5,M,,0000*5B
$GPGSA,A,3,30,13,19,07,28,,,,,,,,5.4,2.8,4.6*3F
$GPRMC,183614.000,A,5553.7512,N,03736.6630,E,21.15,132.21,241214,,,A*56
$GPGGA,183615.000,5553.7468,N,03736.6707,E,1,05,2.8,210.6,M,14.5,M,,0000*52
$GPGSA,A,3,30,13,19,07,28,,,,,,,,5.4,2.8,4.6*3F
$GPGSV,3,1,12,13,71,255,30,28,65,179,29,30,63,091,41,26,58,285,32*7C
$GPGSV,3,2,12,07,29,091,36,08,28,085,,19,23,045,38,05,23,236,*75
$GPGSV,3,3,12,15,18,309,26,27,07,022,22,11,03,090,26,17,02,162,*74
$GPRMC,183615.000,A,5553.7468,N,03736.6707,E,20.65,133.03,241214,,,A*59
$GPGGA,183616.000,5553.7426,N,03736.6792,E,1,05,2.8,209.6,M,14.5,M,,0000*5F
$GPGSA,A,3,30,13,19,07,28,,,,,,,,5.4,2.8,4.6*3F
$GPRMC,183616.000,A,5553.7426,N,03736.6792,E,21.92,131.64,241214,,,A*56
$GPGGA,183617.000,5553.7382,N,03736.6882,E,1,05,2.8,208.6,M,14.5,M,,0000*58
$GPGSA,A,3,30,13,19,07,28,,,,,,,,5.4,2.8,4.6*3F
$GPRMC,183617.000,A,5553.7382,N,03736.6882,E,23.09,132.37,241214,,,A*55
$GPGGA,183618.000,5553.7336,N,03736.6970,E,1,05,2.8,207.3,M,14.5,M,,0000*5E
$GPGSA,A,3,30,13,19,07,28,,,,,,,,5.4,2.8,4.6*3F
$GPRMC,183618.000,A,5553.7336,N,03736.6970,E,23.55,133.33,241214,,,A*55
$GPGGA,183619.000,5553.7293,N,03736.7057,E,1,05,2.8,206.5,M,14.5,M,,0000*5B
$GPGSA,A,3,30,13,19,07,28,,,,,,,,5.4,2.8,4.6*3F
$GPRMC,183619.000,A,5553.7293,N,03736.7057,E,23.62,131.50,241214,,,A*54
$GPGGA,183620.000,5553.7258,N,03736.7146,E,1,05,2.8,206.0,M,14.5,M,,0000*52
$GPGSA,A,3,30,13,19,07,28,,,,,,,,5.4,2.8,4.6*3F
$GPGSV,3,1,12,13,71,255,30,28,65,179,29,30,63,092,41,26,58,285,30*7D
$GPGSV,3,2,12,07,29,091,35,08,28,085,,19,23,045,24,05,23,236,13*79
$GPGSV,3,3,12,15,18,309,26,27,07,022,32,11,03,090,18,17,02,162,*78
$GPRMC,183620.000,A,5553.7258,N,03736.7146,E,22.60,130.85,241214,,,A*52
$GPGGA,183621.000,5553.7221,N,03736.7228,E,1,05,2.8,205.6,M,14.5,M,,0000*53
$GPGSA,A,3,30,13,19,07,28,,,,,,,,5.4,2.8,4.6*3F
$GPRMC,183621.000,A,5553.7221,N,03736.7228,E,21.45,134.42,241214,,,A*5D
$GPGGA,183622.000,5553.7191,N,03736.7307,E,1,05,2.8,204.5,M,14.5,M,,0000*56
$GPGSA,A,3,30,13,19,07,28,,,,,,,,5.4,2.8,4.6*3F
$GPRMC,183622.000,A,5553.7191,N,03736.7307,E,19.82,130.85,241214,,,A*55
$GPGGA,183623.000,5553.7173,N,03736.7360,E,1,05,2.8,202.1,M,14.5,M,,0000*58
$GPGSA,A,3,30,13,19,07,28,,,,,,,,5.4,2.8,4.6*3F
$GPRMC,183623.000,A,5553.7173,N,03736.7360,E,15.73,130.60,241214,,,A*50
$GPGGA,183624.000,5553.7156,N,03736.7403,E,1,05,2.8,199.8,M,14.5,M,,0000*52
$GPGSA,A,3,30,13,19,07,28,,,,,,,,5.4,2.8,4.6*3F
$GPRMC,183624.000,A,5553.7156,N,03736.7403,E,12.68,131.07,241214,,,A*5F
$GPGGA,183625.000,5553.7138,N,03736.7439,E,1,05,2.8,197.6,M,14.5,M,,0000*52
$GPGSA,A,3,30,13,19,07,28,,,,,,,,5.4,2.8,4.6*3F
$GPGSV,3,1,12,13,71,255,36,28,65,179,29,30,63,092,41,26,58,285,30*7B
$GPGSV,3,2,12,07,29,091,36,08,28,085,,19,23,045,37,05,23,236,*7A
$GPGSV,3,3,12,15,18,309,28,27,07,022,24,11,03,090,18,17,02,162,*71
$GPRMC,183625.000,A,5553.7138,N,03736.7439,E,11.53,133.06,241214,,,A*57
$GPGGA,183626.000,5553.7120,N,03736.7475,E,1,05,2.8,195.6,M,14.5,M,,0000*52
$GPGSA,A,3,30,13,19,07,28,,,,,,,,5.4,2.8,4.6*3F
$GPRMC,183626.000,A,5553.7120,N,03736.7475,E,11.75,132.94,241214,,,A*5B
$GPGGA,183627.000,5553.7101,N,03736.7518,E,1,05,2.8,194.1,M,14.5,M,,0000*5C
$GPGSA,A,3,30,13,19,07,28,,,,,,,,5.4,2.8,4.6*3F
$GPRMC,183627.000,A,5553.7101,N,03736.7518,E,13.41,131.84,241214,,,A*54
$GPGGA,183628.000,5553.7077,N,03736.7568,E,1,05,2.8,192.6,M,14.5,M,,0000*55
$GPGSA,A,3,30,13,19,07,28,,,,,,,,5.4,2.8,4.6*3F
$GPRMC,183628.000,A,5553.7077,N,03736.7568,E,15.59,131.89,241214,,,A*5E
$GPGGA,183629.000,5553.7057,N,03736.7633,E,1,05,2.8,192.5,M,14.5,M,,0000*58
$GPGSA,A,3,30,13,19,07,28,,,,,,,,5.4,2.8,4.6*3F
$GPRMC,183629.000,A,5553.7057,N,03736.7633,E,17.47,131.58,241214,,,A*51
$GPGGA,183630.000,5553.7031,N,03736.7701,E,1,05,2.8,191.7,M,14.5,M,,0000*51
$GPGSA,A,3,30,13,19,07,28,,,,,,,,5.4,2.8,4.6*3F
$GPGSV,3,1,12,13,71,255,33,28,65,179,28,30,63,092,41,26,58,285,34*7B
$GPGSV,3,2,12,07,29,091,33,08,28,085,,19,23,045,37,05,23,236,18*76
$GPGSV,3,3,12,15,18,309,28,27,07,022,29,11,03,090,27,17,02,162,*70
$GPRMC,183630.000,A,5553.7031,N,03736.7701,E,18.46,131.00,241214,,,A*5A
$GPGGA,183631.000,5553.7001,N,03736.7760,E,1,05,2.8,189.7,M,14.5,M,,0000*5D
$GPGSA,A,3,30,13,19,07,28,,,,,,,,5.4,2.8,4.6*3F
$GPRMC,183631.000,A,5553.7001,N,03736.7760,E,18.68,130.69,241214,,,A*5D
$GPGGA,183632.000,5553.6979,N,03736.7821,E,1,05,2.8,189.6,M,14.5,M,,0000*52
$GPGSA,A,3,30,13,19,07,28,,,,,,,,5.4,2.8,4.6*3F
$GPRMC,183632.000,A,5553.6979,N,03736.7821,E,16.75,128.73,241214,,,A*53
$GPGGA,183633.000,5553.6954,N,03736.7890,E,1,05,2.8,190.2,M,14.5,M,,0000*5A
$GPGSA,A,3,30,13,19,07,28,,,,,,,,5.4,2.8,4.6*3F
$GPRMC,183633.000,A,5553.6954,N,03736.7890,E,19.45,130.19,241214,,,A*5E
$GPGGA,183634.000,5553.6924,N,03736.7965,E,1,05,2.8,190.6,M,14.5,M,,0000*55
$GPGSA,A,3,30,13,19,07,28,,,,,,,,5.4,2.8,4.6*3F
$GPRMC,183634.000,A,5553.6924,N,03736.7965,E,20.81,130.52,241214,,,A*58
$GPGGA,183635.000,5553.6899,N,03736.8035,E,1,05,2.8,192.7,M,14.5,M,,0000*53
$GPGSA,A,3,30,13,19,07,28,,,,,,,,5.4,2.8,4.6*3F
$GPGSV,3,1,12,13,71,255,32,28,65,179,29,30,63,092,40,26,58,285,30*7E
$GPGSV,3,2,12,07,29,091,34,08,28,085,,19,23,045,37,05,23,236,*78
$GPGSV,3,3,12,15,18,309,28,27,07,022,34,11,03,090,24,17,02,162,*7F
$GPRMC,183635.000,A,5553.6899,N,03736.8035,E,20.60,130.54,241214,,,A*54
$GPGGA,183636.000,5553.6861,N,03736.8113,E,1,05,2.8,192.4,M,14.5,M,,0000*51
$GPGSA,A,3,30,13,19,07,28,,,,,,,,5.4,2.8,4.6*3F
$GPRMC,183636.000,A,5553.6861,N,03736.8113,E,21.38,130.32,241214,,,A*59
$GPGGA,183637.000,5553.6821,N,03736.8196,E,1,05,2.8,191.6,M,14.5,M,,0000*58
$GPGSA,A,3,30,13,19,07,28,,,,,,,,5.4,2.8,4.6*3F
$GPRMC,183637.000,A,5553.6821,N,03736.8196,E,21.21,129.19,241214,,,A*58
$GPGGA,183638.000,5553.6780,N,03736.8282,E,1,05,2.8,191.1,M,14.5,M,,0000*52
$GPGSA,A,3,30,13,19,07,28,,,,,,,,5.4,2.8,4.6*3F
$GPRMC,183638.000,A,5553.6780,N,03736.8282,E,22.32,130.92,241214,,,A*5F
$GPGGA,183639.000,5553.6739,N,03736.8369,E,1,05,2.8,190.9,M,14.5,M,,0000*5C
$GPGSA,A,3,30,13,19,07,28,,,,,,,,5.4,2.8,4.6*3F
$GPRMC,183639.000,A,5553.6739,N,03736.8369,E,22.92,131.26,241214,,,A*5C
$GPGGA,183640.000,5553.6695,N,03736.8455,E,1,05,2.8,189.8,M,14.5,M,,0000*54
$GPGSA,A,3,30,13,19,07,28,,,,,,,,5.4,2.8,4.6*3F
$GPGSV,3,1,12,13,71,255,28,28,65,179,32,30,63,092,40,26,58,285,31*7E
$GPGSV,3,2,12,07,29,091,33,08,28,085,,19,23,045,38,05,23,236,*70
$GPGSV,3,3,12,15,18,309,32,27,07,022,27,11,03,090,20,17,02,162,*72
$GPRMC,183640.000,A,5553.6695,N,03736.8455,E,22.88,132.08,241214,,,A*59
$GPGGA,183641.000,5553.6650,N,03736.8528,E,1,05,2.8,188.3,M,14.5,M,,0000*5D
$GPGSA,A,3,30,13,19,07,28,,,,,,,,5.4,2.8,4.6*3F
$GPRMC,183641.000,A,5553.6650,N,03736.8528,E,22.99,132.62,241214,,,A*56
$GPGGA,183642.000,5553.6607,N,03736.8617,E,1,05,2.8,187.4,M,14.5,M,,0000*5B
$GPGSA,A,3,30,13,19,07,28,,,,,,,,5.4,2.8,4.6*3F
$GPRMC,183642.000,A,5553.6607,N,03736.8617,E,21.82,131.82,241214,,,A*5C
$GPGGA,183643.000,5553.6563,N,03736.8702,E,1,05,2.8,186.4,M,14.5,M,,0000*5F
$GPGSA,A,3,30,13,19,07,28,,,,,,,,5.4,2.8,4.6*3F
$GPRMC,183643.000,A,5553.6563,N,03736.8702,E,22.23,131.70,241214,,,A*5C
$GPGGA,183644.000,5553.6521,N,03736.8790,E,1,05,2.8,185.8,M,14.5,M,,0000*5A
$GPGSA,A,3,30,13,19,07,28,,,,,,,,5.4,2.8,4.6*3F
$GPRMC,183644.000,A,5553.6521,N,03736.8790,E,23.32,131.87,241214,,,A*5F
$GPGGA,183645.000,5553.6470,N,03736.8883,E,1,05,2.8,184.3,M,14.5,M,,0000*59
$GPGSA,A,3,30,13,19,07,28,,,,,,,,5.4,2.8,4.6*3F
$GPGSV,3,1,12,13,71,255,29,28,65,179,28,30,63,092,40,26,58,285,31*74
$GPGSV,3,2,12,07,29,091,34,08,28,085,,19,23,045,34,05,23,236,22*7B
$GPGSV,3,3,12,15,18,309,29,27,07,022,32,11,03,090,18,17,02,162,*77
$GPRMC,183645.000,A,5553.6470,N,03736.8883,E,23.92,135.24,241214,,,A*51
$GPGGA,183646.000,5553.6413,N,03736.8972,E,1,05,2.8,182.7,M,14.5,M,,0000*52
$GPGSA,A,3,30,13,19,07,28,,,,,,,,5.4,2.8,4.6*3F
$GPRMC,183646.000,A,5553.6413,N,03736.8972,E,24.88,137.50,241214,,,A*55
$GPGGA,183647.000,5553.6361,N,03736.9065,E,1,05,2.8,182.6,M,14.5,M,,0000*5E
$GPGSA,A,3,30,13,19,07,28,,,,,,,,5.4,2.8,4.6*3F
$GPRMC,183647.000,A,5553.6361,N,03736.9065,E,23.92,138.66,241214,,,A*5E
$GPGGA,183648.000,5553.6313,N,03736.9148,E,1,05,2.8,181.3,M,14.5,M,,0000*5C
$GPGSA,A,3,30,13,19,07,28,,,,,,,,5.4,2.8,4.6*3F
$GPRMC,183648.000,A,5553.6313,N,03736.9148,E,24.07,137.47,241214,,,A*5D
$GPGGA,183649.000,5553.6286,N,03736.9225,E,1,05,2.8,181.9,M,14.5,M,,0000*52
$GPGSA,A,3,30,13,19,07,28,,,,,,,,5.4,2.8,4.6*3F
$GPRMC,183649.000,A,5553.6286,N,03736.9225,E,21.86,132.60,241214,,,A*55
$GPGGA,183650.000,5553.6272,N,03736.9297,E,1,05,2.8,182.4,M,14.5,M,,0000*56
$GPGSA,A,3,30,13,19,07,28,,,,,,,,5.4,2.8,4.6*3F
$GPGSV,3,1,12,13,71,254,30,28,65,179,27,30,63,092,40,26,59,285,31*73
$GPGSV,3,2,12,07,29,092,35,08,28,085,,19,23,044,36,05,23,236,36*7F
$GPGSV,3,3,12,15,18,309,24,27,07,021,22,11,04,090,15,17,02,162,*72
$GPRMC,183650.000,A,5553.6272,N,03736.9297,E,19.92,128.40,241214,,,A*58
$GPGGA,183651.000,5553.6252,N,03736.9369,E,1,05,2.8,184.9,M,14.5,M,,0000*5E
$GPGSA,A,3,30,13,19,07,28,,,,,,,,5.4,2.8,4.6*3F
$GPRMC,183651.000,A,5553.6252,N,03736.9369,E,19.45,128.30,241214,,,A*56
$GPGGA,183652.000,5553.6224,N,03736.9439,E,1,05,2.8,186.2,M,14.5,M,,0000*57
$GPGSA,A,3,30,13,19,07,28,,,,,,,,5.4,2.8,4.6*3F
$GPRMC,183652.000,A,5553.6224,N,03736.9439,E,19.51,131.92,241214,,,A*53
$GPGGA,183653.000,5553.6194,N,03736.9513,E,1,05,2.8,187.2,M,14.5,M,,0000*56
$GPGSA,A,3,30,13,19,07,28,,,,,,,,5.4,2.8,4.6*3F
$GPRMC,183653.000,A,5553.6194,N,03736.9513,E,19.38,129.57,241214,,,A*5C
$GPGGA,183654.000,5553.6160,N,03736.9587,E,1,05,2.8,188.0,M,14.5,M,,0000*5A
$GPGSA,A,3,30,13,19,07,28,,,,,,,,5.4,2.8,4.6*3F
$GPRMC,183654.000,A,5553.6160,N,03736.9587,E,19.12,130.23,241214,,,A*5E
$GPGGA,183655.000,5553.6127,N,03736.9665,E,1,05,2.8,188.3,M,14.5,M,,0000*54
$GPGSA,A,3,30,13,19,07,28,,,,,,,,5.4,2.8,4.6*3F
$GPGSV,3,1,12,13,71,254,30,28,65,179,28,30,63,092,40,26,59,285,32*7F
$GPGSV,3,2,12,07,29,092,37,08,28,085,,19,23,044,38,05,23,236,17*70
$GPGSV,3,3,12,15,18,309,26,27,07,021,29,11,04,090,19,17,02,162,*77
$GPRMC,183655.000,A,5553.6127,N,03736.9665,E,19.93,129.94,241214,,,A*5E
$GPGGA,183656.000,5553.6089,N,03736.9741,E,1,05,2.8,188.6,M,14.5,M,,0000*50
$GPGSA,A,3,30,13,19,07,28,,,,,,,,5.4,2.8,4.6*3F
$GPRMC,183656.000,A,5553.6089,N,03736.9741,E,20.18,130.76,241214,,,A*52
$GPGGA,183657.000,5553.6053,N,03736.9821,E,1,05,2.8,189.4,M,14.5,M,,0000*5C
$GPGSA,A,3,30,13,19,07,28,,,,,,,,5.4,2.8,4.6*3F
$GPRMC,183657.000,A,5553.6053,N,03736.9821,E,19.48,131.50,241214,,,A*57
$GPGGA,183658.000,5553.6013,N,03736.9905,E,1,05,2.8,189.5,M,14.5,M,,0000*51
$GPGSA,A,3,30,13,19,07,28,,,,,,,,5.4,2.8,4.6*3F
$GPRMC,183658.000,A,5553.6013,N,03736.9905,E,19.73,129.81,241214,,,A*56
$GPGGA,183659.000,5553.5979,N,03736.9986,E,1,05,2.8,191.4,M,14.5,M,,0000*55
$GPGSA,A,3,30,13,19,07,28,,,,,,,,5.4,2.8,4.6*3F
$GPRMC,183659.000,A,5553.5979,N,03736.9986,E,20.55,130.53,241214,,,A*53
$GPGGA,183700.000,5553.5940,N,03737.0070,E,1,05,2.8,192.9,M,14.5,M,,0000*54
$GPGSA,A,3,30,13,19,07,28,,,,,,,,5.4,2.8,4.6*3F
$GPGSV,3,1,12,13,71,254,31,28,65,179,28,30,63,092,39,26,59,285,32*70
$GPGSV,3,2,12,07,29,092,36,08,28,085,,19,23,044,38,05,23,236,17*71
$GPGSV,3,3,12,15,18,309,27,27,07,021,27,11,04,090,11,17,02,162,*70
$GPRMC,183700.000,A,5553.5940,N,03737.0070,E,20.99,130.07,241214,,,A*5D
$GPGGA,183701.000,5553.5898,N,03737.0159,E,1,04,3.4,193.5,M,14.5,M,,0000*5A
$GPGSA,A,3,30,13,19,07,,,,,,,,,6.0,3.4,5.0*38
$GPRMC,183701.000,A,5553.5898,N,03737.0159,E,22.58,130.85,241214,,,A*57
$GPGGA,183702.000,5553.5848,N,03737.0251,E,1,05,2.8,194.1,M,14.5,M,,0000*50
$GPGSA,A,3,30,13,19,07,28,,,,,,,,5.4,2.8,4.6*3F
$GPRMC,183702.000,A,5553.5848,N,03737.0251,E,23.67,131.39,241214,,,A*59
$GPGGA,183703.000,5553.5793,N,03737.0340,E,1,05,2.8,194.1,M,14.5,M,,0000*59
$GPGSA,A,3,30,13,19,07,28,,,,,,,,5.4,2.8,4.6*3F
$GPRMC,183703.000,A,5553.5793,N,03737.0340,E,22.93,129.62,241214,,,A*5D
$GPGGA,183704.000,5553.5744,N,03737.0429,E,1,05,2.8,194.4,M,14.5,M,,0000*59
$GPGSA,A,3,30,13,19,07,28,,,,,,,,5.4,2.8,4.6*3F
$GPRMC,183704.000,A,5553.5744,N,03737.0429,E,23.56,129.98,241214,,,A*55
$GPGGA,183705.000,5553.5689,N,03737.0519,E,1,05,2.8,193.9,M,14.5,M,,0000*50
$GPGSA,A,3,30,13,19,07,28,,,,,,,,5.4,2.8,4.6*3F
$GPGSV,3,1,12,13,71,254,31,28,65,179,28,30,63,092,39,26,59,285,32*70
$GPGSV,3,2,12,07,29,092,36,08,28,085,,19,23,044,38,05,23,236,16*70
$GPGSV,3,3,12,15,18,309,27,27,07,021,22,11,04,090,14,17,02,162,*70
$GPRMC,183705.000,A,5553.5689,N,03737.0519,E,23.58,131.32,241214,,,A*51
$GPGGA,183706.000,5553.5645,N,03737.0602,E,1,05,2.8,195.6,M,14.5,M,,0000*53
$GPGSA,A,3,30,13,19,07,28,,,,,,,,5.4,2.8,4.6*3F
$GPRMC,183706.000,A,5553.5645,N,03737.0602,E,22.26,130.95,241214,,,A*5F
$GPGGA,183707.000,5553.5606,N,03737.0693,E,1,05,2.8,195.8,M,14.5,M,,0000*53
$GPGSA,A,3,30,13,19,07,28,,,,,,,,5.4,2.8,4.6*3F
$GPRMC,183707.000,A,5553.5606,N,03737.0693,E,21.82,130.73,241214,,,A*54
$GPGGA,183708.000,5553.5568,N,03737.0771,E,1,05,2.8,198.2,M,14.5,M,,0000*5D
$GPGSA,A,3,30,13,19,07,28,,,,,,,,5.4,2.8,4.6*3F
$GPRMC,183708.000,A,5553.5568,N,03737.0771,E,19.99,131.22,241214,,,A*59
$GPGGA,183709.000,5553.5518,N,03737.0845,E,1,05,2.8,197.9,M,14.5,M,,0000*57
$GPGSA,A,3,30,13,19,07,28,,,,,,,,5.4,2.8,4.6*3F
$GPRMC,183709.000,A,5553.5518,N,03737.0845,E,19.92,132.47,241214,,,A*5C
$GPGGA,183710.000,5553.5484,N,03737.0926,E,1,05,2.8,198.7,M,14.5,M,,0000*5E
$GPGSA,A,3,30,13,19,07,28,,,,,,,,5.4,2.8,4.6*3F
$GPGSV,3,1,12,13,71,254,31,28,65,179,28,30,63,092,39,26,59,285,33*71
$GPGSV,3,2,12,07,29,092,33,08,28,085,,19,23,044,35,05,23,236,23*7E
$GPGSV,3,3,12,15,18,309,27,27,07,021,29,11,04,090,15,17,02,162,*7A
$GPRMC,183710.000,A,5553.5484,N,03737.0926,E,19.26,129.83,241214,,,A*59
$GPGGA,183711.000,5553.5440,N,03737.1007,E,1,05,2.8,199.1,M,14.5,M,,0000*5B
$GPGSA,A,3,30,13,19,07,28,,,,,,,,5.4,2.8,4.6*3F
$GPRMC,183711.000,A,5553.5440,N,03737.1007,E,19.24,130.04,241214,,,A*5E
$GPGGA,183712.000,5553.5394,N,03737.1094,E,1,05,2.8,198.9,M,14.5,M,,0000*55
$GPGSA,A,3,30,13,19,07,28,,,,,,,,5.4,2.8,4.6*3F
$GPRMC,183712.000,A,5553.5394,N,03737.1094,E,18.65,130.73,241214,,,A*5D
$GPGGA,183713.000,5553.5351,N,03737.1172,E,1,05,2.8,198.9,M,14.5,M,,0000*54
$GPGSA,A,3,30,13,19,07,28,,,,,,,,5.4,2.8,4.6*3F
$GPRMC,183713.000,A,5553.5351,N,03737.1172,E,19.33,129.80,241214,,,A*5A
$GPGGA,183714.000,5553.5319,N,03737.1251,E,1,05,2.8,199.1,M,14.5,M,,0000*54
$GPGSA,A,3,30,13,19,07,28,,,,,,,,5.4,2.8,4.6*3F
$GPRMC,183714.000,A,5553.5319,N,03737.1251,E,19.22,129.48,241214,,,A*57
$GPGGA,183715.000,5553.5289,N,03737.1325,E,1,05,2.8,198.4,M,14.5,M,,0000*5B
$GPGSA,A,3,30,13,19,07,28,,,,,,,,5.4,2.8,4.6*3F
$GPGSV,3,1,12,13,71,254,31,28,65,179,29,30,63,092,40,26,59,285,34*79
$GPGSV,3,2,12,07,29,092,33,08,28,085,,19,23,044,27,05,23,236,27*79
$GPGSV,3,3,12,15,18,309,27,27,07,021,20,11,04,090,14,17,02,162,*72
$GPRMC,183715.000,A,5553.5289,N,03737.1325,E,18.81,128.87,241214,,,A*56
$GPGGA,183716.000,5553.5261,N,03737.1398,E,1,05,2.8,197.7,M,14.5,M,,0000*54
$GPGSA,A,3,30,13,19,07,28,,,,,,,,5.4,2.8,4.6*3F
$GPRMC,183716.000,A,5553.5261,N,03737.1398,E,17.21,128.67,241214,,,A*5E
$GPGGA,183717.000,5553.5233,N,03737.1461,E,1,05,2.8,196.6,M,14.5,M,,0000*53
$GPGSA,A,3,30,13,19,07,28,,,,,,,,5.4,2.8,4.6*3F
$GPRMC,183717.000,A,5553.5233,N,03737.1461,E,15.96,132.50,241214,,,A*58
$GPGGA,183718.000,5553.5211,N,03737.1518,E,1,05,2.8,196.2,M,14.5,M,,0000*57
$GPGSA,A,3,30,13,19,07,28,,,,,,,,5.4,2.8,4.6*3F
$GPRMC,183718.000,A,5553.5211,N,03737.1518,E,14.50,133.97,241214,,,A*59
$GPGGA,183719.000,5553.5194,N,03737.1567,E,1,05,2.8,196.3,M,14.5,M,,0000*51
$GPGSA,A,3,30,13,19,07,28,,,,,,,,5.4,2.8,4.6*3F
$GPRMC,183719.000,A,5553.5194,N,03737.1567,E,11.98,133.40,241214,,,A*55
$GPGGA,183720.000,5553.5174,N,03737.1603,E,1,05,2.8,196.3,M,14.5,M,,0000*54
$GPGSA,A,3,30,13,19,07,28,,,,,,,,5.4,2.8,4.6*3F
$GPGSV,3,1,12,13,71,254,37,28,65,179,29,30,63,092,40,26,59,285,29*73
$GPGSV,3,2,12,07,29,092,33,08,28,085,,19,23,044,28,05,23,236,28*79
$GPGSV,3,3,12,15,18,309,30,27,07,021,18,11,04,090,,17,02,162,*7A
$GPRMC,183720.000,A,5553.5174,N,03737.1603,E,10.92,141.31,241214,,,A*58
$GPGGA,183721.000,5553.5155,N,03737.1633,E,1,05,2.8,195.4,M,14.5,M,,0000*51
$GPGSA,A,3,30,13,19,07,28,,,,,,,,5.4,2.8,4.6*3F
$GPRMC,183721.000,A,5553.5155,N,03737.1633,E,9.26,137.93,241214,,,A*67
$GPGGA,183722.000,5553.5136,N,03737.1661,E,1,05,2.8,194.5,M,14.5,M,,0000*50
$GPGSA,A,3,30,13,19,07,28,,,,,,,,5.4,2.8,4.6*3F
$GPRMC,183722.000,A,5553.5136,N,03737.1661,E,7.73,138.90,241214,,,A*64
$GPGGA,183723.000,5553.5125,N,03737.1681,E,1,05,2.8,193.9,M,14.5,M,,0000*56
$GPGSA,A,3,30,13,19,07,28,,,,,,,,5.4,2.8,4.6*3F
$GPRMC,183723.000,A,5553.5125,N,03737.1681,E,5.85,131.98,241214,,,A*63
$GPGGA,183724.000,5553.5117,N,03737.1706,E,1,05,2.8,193.1,M,14.5,M,,0000*56
$GPGSA,A,3,30,13,19,07,28,,,,,,,,5.4,2.8,4.6*3F
$GPRMC,183724.000,A,5553.5117,N,03737.1706,E,7.95,133.64,241214,,,A*69
$GPGGA,183725.000,5553.5103,N,03737.1739,E,1,05,2.8,191.6,M,14.5,M,,0000*5B
$GPGSA,A,3,30,13,19,07,28,,,,,,,,5.4,2.8,4.6*3F
$GPGSV,3,1,12,13,71,254,36,28,65,179,29,30,63,092,39,26,59,285,32*76
$GPGSV,3,2,12,07,29,092,33,08,28,085,,19,23,044,32,05,23,236,29*73
$GPGSV,3,3,12,15,18,309,30,27,07,021,17,11,04,090,,17,02,162,*75
$GPRMC,183725.000,A,5553.5103,N,03737.1739,E,10.09,130.12,241214,,,A*50
$GPGGA,183726.000,5553.5087,N,03737.1782,E,1,05,2.8,190.9,M,14.5,M,,0000*5B
$GPGSA,A,3,30,13,19,07,28,,,,,,,,5.4,2.8,4.6*3F
$GPRMC,183726.000,A,5553.5087,N,03737.1782,E,12.46,130.22,241214,,,A*54
$GPGGA,183727.000,5553.5067,N,03737.1833,E,1,05,2.8,189.8,M,14.5,M,,0000*58
$GPGSA,A,3,30,13,19,07,28,,,,,,,,5.4,2.8,4.6*3F
$GPRMC,183727.000,A,5553.5067,N,03737.1833,E,14.30,131.68,241214,,,A*56
$GPGGA,183728.000,5553.5043,N,03737.1885,E,1,05,2.8,189.0,M,14.5,M,,0000*54
$GPGSA,A,3,30,13,19,07,28,,,,,,,,5.4,2.8,4.6*3F
$GPRMC,183728.000,A,5553.5043,N,03737.1885,E,14.40,131.73,241214,,,A*5F
$GPGGA,183729.000,5553.5023,N,03737.1942,E,1,05,2.8,189.0,M,14.5,M,,0000*59
$GPGSA,A,3,30,13,19,07,28,,,,,,,,5.4,2.8,4.6*3F
$GPRMC,183729.000,A,5553.5023,N,03737.1942,E,15.00,130.34,241214,,,A*55
$GPGGA,183730.000,5553.4997,N,03737.1999,E,1,05,2.8,188.1,M,14.5,M,,0000*50
$GPGSA,A,3,30,13,19,07,28,,,,,,,,5.4,2.8,4.6*3F
$GPGSV,3,1,12,13,71,254,36,28,65,179,30,30,63,092,40,26,59,285,32*70
$GPGSV,3,2,12,07,29,092,33,08,28,085,,19,23,044,39,05,23,236,33*73
$GPGSV,3,3,12,15,18,309,29,27,07,021,16,11,04,090,,17,02,162,22*7C
$GPRMC,183730.000,A,5553.4997,N,03737.1999,E,16.19,130.88,241214,,,A*50
$GPGGA,183731.000,5553.4971,N,03737.2061,E,1,05,2.8,187.4,M,14.5,M,,0000*5E
$GPGSA,A,3,30,13,19,07,28,,,,,,,,5.4,2.8,4.6*3F
$GPRMC,183731.000,A,5553.4971,N,03737.2061,E,16.18,130.12,241214,,,A*56
$GPGGA,183732.000,5553.4946,N,03737.2123,E,1,05,2.8,186.7,M,14.5,M,,0000*5C
$GPGSA,A,3,30,13,19,07,28,,,,,,,,5.4,2.8,4.6*3F
$GPRMC,183732.000,A,5553.4946,N,03737.2123,E,15.79,129.30,241214,,,A*5A
$GPGGA,183733.000,5553.4924,N,03737.2184,E,1,05,2.8,186.5,M,14.5,M,,0000*56
$GPGSA,A,3,30,13,19,07,28,,,,,,,,5.4,2.8,4.6*3F
$GPRMC,183733.000,A,5553.4924,N,03737.2184,E,14.83,126.92,241214,,,A*51
$GPGGA,183734.000,5553.4906,N,03737.2243,E,1,05,2.8,186.5,M,14.5,M,,0000*59
$GPGSA,A,3,30,13,19,07,28,,,,,,,,5.4,2.8,4.6*3F
$GPRMC,183734.000,A,5553.4906,N,03737.2243,E,13.68,125.43,241214,,,A*53
$GPGGA,183735.000,5553.4883,N,03737.2289,E,1,05,2.8,185.1,M,14.5,M,,0000*55
$GPGSA,A,3,30,13,19,07,28,,,,,,,,5.4,2.8,4.6*3F
$GPGSV,3,1,12,13,71,254,32,28,65,179,26,30,63,092,40,26,59,285,32*73
$GPGSV,3,2,12,07,29,092,35,08,28,085,,19,23,044,37,05,23,236,34*7C
$GPGSV,3,3,12,15,18,309,29,27,07,021,24,11,04,090,,17,02,162,28*77
$GPRMC,183735.000,A,5553.4883,N,03737.2289,E,12.65,130.33,241214,,,A*57
$GPGGA,183736.000,5553.4859,N,03737.2338,E,1,05,2.8,183.8,M,14.5,M,,0000*55
$GPGSA,A,3,30,13,19,07,28,,,,,,,,5.4,2.8,4.6*3F
$GPRMC,183736.000,A,5553.4859,N,03737.2338,E,12.15,129.30,241214,,,A*54
$GPGGA,183737.000,5553.4834,N,03737.2378,E,1,05,2.8,181.7,M,14.5,M,,0000*56
$GPGSA,A,3,30,13,19,07,28,,,,,,,,5.4,2.8,4.6*3F
$GPRMC,183737.000,A,5553.4834,N,03737.2378,E,10.93,133.92,241214,,,A*55
$GPGGA,183738.000,5553.4817,N,03737.2419,E,1,05,2.8,181.1,M,14.5,M,,0000*5E
$GPGSA,A,3,30,13,19,07,28,,,,,,,,5.4,2.8,4.6*3F
$GPRMC,183738.000,A,5553.4817,N,03737.2419,E,10.72,128.78,241214,,,A*5A
$GPGGA,183739.000,5553.4799,N,03737.2464,E,1,05,2.8,180.4,M,14.5,M,,0000*58
$GPGSA,A,3,30,13,19,07,28,,,,,,,,5.4,2.8,4.6*3F
$GPRMC,183739.000,A,5553.4799,N,03737.2464,E,10.65,127.58,241214,,,A*53
$GPGGA,183740.000,5553.4789,N,03737.2508,E,1,05,2.8,180.6,M,14.5,M,,0000*5E
$GPGSA,A,3,30,13,19,07,28,,,,,,,,5.4,2.8,4.6*3F
$GPGSV,3,1,12,13,71,254,30,28,65,179,26,30,63,092,41,26,59,285,33*71
$GPGSV,3,2,12,07,29,092,35,08,28,085,,19,23,044,37,05,23,236,32*7A
$GPGSV,3,3,12,15,18,309,25,27,07,021,24,11,04,090,,17,02,162,26*75
$GPRMC,183740.000,A,5553.4789,N,03737.2508,E,9.66,126.53,241214,,,A*66
$GPGGA,183741.000,5553.4780,N,03737.2548,E,1,05,2.8,180.9,M,14.5,M,,0000*5D
$GPGSA,A,3,30,13,19,07,28,,,,,,,,5.4,2.8,4.6*3F
$GPRMC,183741.000,A,5553.4780,N,03737.2548,E,8.35,126.34,241214,,,A*6C
$GPGGA,183742.000,5553.4767,N,03737.2577,E,1,05,2.8,180.1,M,14.5,M,,0000*53
$GPGSA,A,3,30,13,19,07,28,,,,,,,,5.4,2.8,4.6*3F
$GPRMC,183742.000,A,5553.4767,N,03737.2577,E,6.89,126.96,241214,,,A*6B
$GPGGA,183743.000,5553.4759,N,03737.2601,E,1,05,2.8,179.7,M,14.5,M,,0000*5D
$GPGSA,A,3,30,13,19,07,28,,,,,,,,5.4,2.8,4.6*3F
$GPRMC,183743.000,A,5553.4759,N,03737.2601,E,5.89,126.23,241214,,,A*68
$GPGGA,183744.000,5553.4751,N,03737.2619,E,1,05,2.8,179.3,M,14.5,M,,0000*5F
$GPGSA,A,3,30,13,19,07,28,,,,,,,,5.4,2.8,4.6*3F
$GPRMC,183744.000,A,5553.4751,N,03737.2619,E,4.36,127.14,241214,,,A*6E
$GPGGA,183745.000,5553.4746,N,03737.2632,E,1,05,2.8,178.9,M,14.5,M,,0000*5A
$GPGSA,A,3,30,13,19,07,28,,,,,,,,5.4,2.8,4.6*3F
$GPGSV,3,1,12,13,71,254,32,28,65,179,32,30,63,092,42,26,59,285,35*73
$GPGSV,3,2,12,07,29,092,35,08,28,085,,19,23,044,37,05,23,236,37*7F
$GPGSV,3,3,12,15,18,309,26,27,07,021,26,11,04,090,,17,02,162,20*72
$GPRMC,183745.000,A,5553.4746,N,03737.2632,E,2.71,127.75,241214,,,A*62
$GPGGA,183746.000,5553.4741,N,03737.2636,E,1,05,2.8,178.0,M,14.5,M,,0000*53
$GPGSA,A,3,30,13,19,07,28,,,,,,,,5.4,2.8,4.6*3F
$GPRMC,183746.000,A,5553.4741,N,03737.2636,E,1.12,139.08,241214,,,A*61
$GPGGA,183747.000,5553.4739,N,03737.2638,E,1,05,2.8,177.5,M,14.5,M,,0000*59
$GPGSA,A,3,30,13,19,07,28,,,,,,,,5.4,2.8,4.6*3F
$GPRMC,183747.000,A,5553.4739,N,03737.2638,E,0.55,174.00,241214,,,A*62
$GPGGA,183748.000,5553.4739,N,03737.2639,E,1,05,2.8,177.3,M,14.5,M,,0000*51
$GPGSA,A,3,30,13,19,07,28,,,,,,,,5.4,2.8,4.6*3F
$GPRMC,183748.000,A,5553.4739,N,03737.2639,E,0.00,,241214,,,A*70
$GPGGA,183749.000,5553.4739,N,03737.2639,E,1,05,2.8,177.3,M,14.5,M,,0000*50
$GPGSA,A,3,30,13,19,07,28,,,,,,,,5.4,2.8,4.6*3F
$GPRMC,183749.000,A,5553.4739,N,03737.2639,E,0.00,,241214,,,A*71
$GPGGA,183750.000,5553.4739,N,03737.2639,E,1,05,2.8,177.3,M,14.5,M,,0000*58
$GPGSA,A,3,30,13,19,07,28,,,,,,,,5.4,2.8,4.6*3F
$GPGSV,3,1,12,13,71,252,32,28,66,178,33,30,63,092,42,26,59,284,36*74
$GPGSV,3,2,12,07,29,092,37,08,27,086,,19,23,044,42,05,22,235,35*73
$GPGSV,3,3,12,15,19,308,25,27,06,021,30,11,04,090,,17,02,162,*75
$GPRMC,183750.000,A,5553.4739,N,03737.2639,E,0.00,,241214,,,A*79
$GPGGA,183751.000,5553.4739,N,03737.2639,E,1,05,2.8,177.3,M,14.5,M,,0000*59
$GPGSA,A,3,30,13,19,07,28,,,,,,,,5.4,2.8,4.6*3F
$GPRMC,183751.000,A,5553.4739,N,03737.2639,E,0.00,,241214,,,A*78
$GPGGA,183752.000,5553.4739,N,03737.2639,E,1,05,2.8,177.3,M,14.5,M,,0000*5A
$GPGSA,A,3,30,13,19,07,28,,,,,,,,5.4,2.8,4.6*3F
$GPRMC,183752.000,A,5553.4739,N,03737.2639,E,0.00,,241214,,,A*7B
$GPGGA,183753.000,5553.4739,N,03737.2639,E,1,05,2.8,177.3,M,14.5,M,,0000*5B
$GPGSA,A,3,30,13,19,07,28,,,,,,,,5.4,2.8,4.6*3F
$GPRMC,183753.000,A,5553.4739,N,03737.2639,E,0.00,,241214,,,A*7A
$GPGGA,183754.000,5553.4739,N,03737.2639,E,1,05,2.8,177.3,M,14.5,M,,0000*5C
$GPGSA,A,3,30,13,19,07,28,,,,,,,,5.4,2.8,4.6*3F
$GPRMC,183754.000,A,5553.4739,N,03737.2639,E,0.00,,241214,,,A*7D
$GPGGA,183755.000,5553.4739,N,03737.2639,E,1,05,2.8,177.3,M,14.5,M,,0000*5D
$GPGSA,A,3,30,13,19,07,28,,,,,,,,5.4,2.8,4.6*3F
$GPGSV,3,1,12,13,71,252,33,28,66,178,33,30,63,092,42,26,59,284,36*75
$GPGSV,3,2,12,07,29,092,38,08,27,086,20,19,23,044,42,05,22,235,34*7F
$GPGSV,3,3,12,15,19,308,25,27,06,021,30,11,04,090,,17,02,162,*75
$GPRMC,183755.000,A,5553.4739,N,03737.2639,E,0.00,,241214,,,A*7C
$GPGGA,183756.000,5553.4739,N,03737.2639,E,1,05,2.8,177.3,M,14.5,M,,0000*5E
$GPGSA,A,3,30,13,19,07,28,,,,,,,,5.4,2.8,4.6*3F
$GPRMC,183756.000,A,5553.4739,N,03737.2639,E,0.00,,241214,,,A*7F
$GPGGA,183757.000,5553.4739,N,03737.2639,E,1,05,2.8,177.3,M,14.5,M,,0000*5F
$GPGSA,A,3,30,13,19,07,28,,,,,,,,5.4,2.8,4.6*3F
$GPRMC,183757.000,A,5553.4739,N,03737.2639,E,0.00,,241214,,,A*7E
$GPGGA,183758.000,5553.4739,N,03737.2639,E,1,05,2.8,177.3,M,14.5,M,,0000*50
$GPGSA,A,3,30,13,19,07,28,,,,,,,,5.4,2.8,4.6*3F
$GPRMC,183758.000,A,5553.4739,N,03737.2639,E,0.00,,241214,,,A*71
$GPGGA,183759.000,5553.4739,N,03737.2639,E,1,06,2.5,177.3,M,14.5,M,,0000*5F
$GPGSA,A,3,30,13,19,07,28,26,,,,,,,5.1,2.5,4.4*31
$GPRMC,183759.000,A,5553.4739,N,03737.2639,E,0.00,,241214,,,A*70
$GPGGA,183800.000,5553.4739,N,03737.2639,E,1,06,2.5,177.3,M,14.5,M,,0000*5C
$GPGSA,A,3,30,13,19,07,28,26,,,,,,,5.1,2.5,4.4*31
$GPGSV,3,1,12,13,71,252,32,28,66,178,30,30,62,092,42,26,59,284,37*77
$GPGSV,3,2,12,07,29,092,38,08,27,086,,19,23,044,41,05,22,235,34*7E
$GPGSV,3,3,12,15,19,308,25,27,06,021,30,11,04,090,,17,02,162,*75
$GPRMC,183800.000,A,5553.4739,N,03737.2639,E,0.00,,241214,,,A*73
$GPGGA,183801.000,5553.4743,N,03737.2655,E,1,06,2.5,176.1,M,14.5,M,,0000*59
$GPGSA,A,3,30,13,19,07,28,26,,,,,,,5.1,2.5,4.4*31
$GPRMC,183801.000,A,5553.4743,N,03737.2655,E,2.63,125.58,241214,,,A*67
$GPGGA,183802.000,5553.4738,N,03737.2670,E,1,06,2.5,176.1,M,14.5,M,,0000*51
$GPGSA,A,3,30,13,19,07,28,26,,,,,,,5.1,2.5,4.4*31
$GPRMC,183802.000,A,5553.4738,N,03737.2670,E,3.99,121.57,241214,,,A*60
$GPGGA,183803.000,5553.4731,N,03737.2696,E,1,06,2.5,176.2,M,14.5,M,,0000*52
$GPGSA,A,3,30,13,19,07,28,26,,,,,,,5.1,2.5,4.4*31
$GPRMC,183803.000,A,5553.4731,N,03737.2696,E,7.30,121.84,241214,,,A*69
$GPGGA,183804.000,5553.4720,N,03737.2737,E,1,06,2.5,176.5,M,14.5,M,,0000*58
$GPGSA,A,3,30,13,19,07,28,26,,,,,,,5.1,2.5,4.4*31
$GPRMC,183804.000,A,5553.4720,N,03737.2737,E,10.30,122.06,241214,,,A*5B
$GPGGA,183805.000,5553.4705,N,03737.2784,E,1,06,2.5,176.6,M,14.5,M,,0000*55
$GPGSA,A,3,30,13,19,07,28,26,,,,,,,5.1,2.5,4.4*31
$GPGSV,3,1,12,13,71,252,33,28,66,178,26,30,62,092,43,26,59,284,36*71
$GPGSV,3,2,12,07,29,092,33,08,27,086,,19,23,044,38,05,22,235,33*7C
$GPGSV,3,3,12,15,19,308,26,27,06,021,25,11,04,090,,17,02,162,*72
$GPRMC,183805.000,A,5553.4705,N,03737.2784,E,10.99,121.06,241214,,,A*55
$GPGGA,183806.000,5553.4692,N,03737.2837,E,1,06,2.5,177.2,M,14.5,M,,0000*5B
$GPGSA,A,3,30,13,19,07,28,26,,,,,,,5.1,2.5,4.4*31
$GPRMC,183806.000,A,5553.4692,N,03737.2837,E,12.67,120.94,241214,,,A*57
$GPGGA,183807.000,5553.4673,N,03737.2899,E,1,06,2.5,177.2,M,14.5,M,,0000*51
$GPGSA,A,3,30,13,19,07,28,26,,,,,,,5.1,2.5,4.4*31
$GPRMC,183807.000,A,5553.4673,N,03737.2899,E,15.21,121.02,241214,,,A*56
$GPGGA,183808.000,5553.4650,N,03737.2970,E,1,06,2.5,177.3,M,14.5,M,,0000*58
$GPGSA,A,3,30,13,19,07,28,26,,,,,,,5.1,2.5,4.4*31
$GPRMC,183808.000,A,5553.4650,N,03737.2970,E,16.99,120.51,241214,,,A*59
$GPGGA,183809.000,5553.4624,N,03737.3048,E,1,06,2.5,177.0,M,14.5,M,,0000*5A
$GPGSA,A,3,30,13,19,07,28,26,,,,,,,5.1,2.5,4.4*31
$GPRMC,183809.000,A,5553.4624,N,03737.3048,E,18.33,120.46,241214,,,A*50
$GPGGA,183810.000,5553.4596,N,03737.3131,E,1,06,2.5,176.8,M,14.5,M,,0000*5E
$GPGSA,A,3,30,13,19,07,28,26,,,,,,,5.1,2.5,4.4*31
$GPGSV,3,1,12,13,71,252,32,28,66,178,26,30,62,092,43,26,59,284,36*70
$GPGSV,3,2,12,07,29,092,33,08,27,086,,19,23,044,40,05,22,235,33*73
$GPGSV,3,3,12,15,19,308,26,27,06,021,25,11,04,090,,17,02,162,*72
$GPRMC,183810.000,A,5553.4596,N,03737.3131,E,19.59,120.19,241214,,,A*5A
$GPGGA,183811.000,5553.4565,N,03737.3218,E,1,06,2.5,176.2,M,14.5,M,,0000*51
$GPGSA,A,3,30,13,19,07,28,26,,,,,,,5.1,2.5,4.4*31
$GPRMC,183811.000,A,5553.4565,N,03737.3218,E,20.79,120.46,241214,,,A*5D
$GPGGA,183812.000,5553.4535,N,03737.3312,E,1,06,2.5,176.1,M,14.5,M,,0000*5F
$GPGSA,A,3,30,13,19,07,28,26,,,,,,,5.1,2.5,4.4*31
$GPRMC,183812.000,A,5553.4535,N,03737.3312,E,22.37,121.02,241214,,,A*59
$GPGGA,183813.000,5553.4502,N,03737.3412,E,1,06,2.5,175.9,M,14.5,M,,0000*56
$GPGSA,A,3,30,13,19,07,28,26,,,,,,,5.1,2.5,4.4*31
$GPRMC,183813.000,A,5553.4502,N,03737.3412,E,23.53,121.58,241214,,,A*57
$GPGGA,183814.000,5553.4468,N,03737.3514,E,1,06,2.5,176.0,M,14.5,M,,0000*51
$GPGSA,A,3,30,13,19,07,28,26,,,,,,,5.1,2.5,4.4*31
$GPRMC,183814.000,A,5553.4468,N,03737.3514,E,23.80,121.47,241214,,,A*5A
$GPGGA,183815.000,5553.4434,N,03737.3617,E,1,06,2.5,175.9,M,14.5,M,,0000*53
$GPGSA,A,3,30,13,19,07,28,26,,,,,,,5.1,2.5,4.4*31
$GPGSV,3,1,12,13,71,252,33,28,66,178,26,30,62,092,43,26,59,284,35*72
$GPGSV,3,2,12,07,29,092,34,19,23,044,41,05,22,235,27,15,19,308,19*7C
$GPGSV,3,3,12,27,06,021,14,11,04,089,,17,03,162,,18,01,345,*70
$GPRMC,183815.000,A,5553.4434,N,03737.3617,E,24.07,121.16,241214,,,A*5E
$GPGGA,183816.000,5553.4400,N,03737.3721,E,1,06,2.5,175.9,M,14.5,M,,0000*53
$GPGSA,A,3,30,13,19,07,28,26,,,,,,,5.1,2.5,4.4*31
$GPRMC,183816.000,A,5553.4400,N,03737.3721,E,24.59,121.45,241214,,,A*53
$GPGGA,183817.000,5553.4362,N,03737.3826,E,1,06,2.5,175.5,M,14.5,M,,0000*55
$GPGSA,A,3,30,13,19,07,28,26,,,,,,,5.1,2.5,4.4*31
$GPRMC,183817.000,A,5553.4362,N,03737.3826,E,24.64,121.98,241214,,,A*57
$GPGGA,183818.000,5553.4326,N,03737.3930,E,1,06,2.5,175.2,M,14.5,M,,0000*5B
$GPGSA,A,3,30,13,19,07,28,26,,,,,,,5.1,2.5,4.4*31
$GPRMC,183818.000,A,5553.4326,N,03737.3930,E,24.71,122.02,241214,,,A*5A
$GPGGA,183819.000,5553.4289,N,03737.4035,E,1,06,2.5,174.9,M,14.5,M,,0000*5F
$GPGSA,A,3,30,13,19,07,28,26,,,,,,,5.1,2.5,4.4*31
$GPRMC,183819.000,A,5553.4289,N,03737.4035,E,24.54,120.83,241214,,,A*58
$GPGGA,183820.000,5553.4258,N,03737.4142,E,1,06,2.5,175.0,M,14.5,M,,0000*50
$GPGSA,A,3,30,13,19,07,28,26,,,,,,,5.1,2.5,4.4*31
$GPGSV,3,1,12,13,71,252,33,28,66,178,23,30,62,092,43,26,59,284,35*77
$GPGSV,3,2,12,07,28,092,34,19,23,044,41,05,22,235,28,15,19,308,27*7F
$GPGSV,3,3,12,27,06,021,14,11,04,089,,17,03,162,12,18,01,345,*73
$GPRMC,183820.000,A,5553.4258,N,03737.4142,E,24.35,118.01,241214,,,A*59
$GPGGA,183821.000,5553.4227,N,03737.4250,E,1,06,2.5,174.6,M,14.5,M,,0000*5E
$GPGSA,A,3,30,13,19,07,28,26,,,,,,,5.1,2.5,4.4*31
$GPRMC,183821.000,A,5553.4227,N,03737.4250,E,24.11,114.26,241214,,,A*5F
$GPGGA,183822.000,5553.4203,N,03737.4358,E,1,06,2.5,175.1,M,14.5,M,,0000*54
$GPGSA,A,3,30,13,19,07,28,26,,,,,,,5.1,2.5,4.4*31
$GPRMC,183822.000,A,5553.4203,N,03737.4358,E,23.94,111.44,241214,,,A*58
$GPGGA,183823.000,5553.4175,N,03737.4468,E,1,06,2.5,175.0,M,14.5,M,,0000*52
$GPGSA,A,3,30,13,19,07,28,26,,,,,,,5.1,2.5,4.4*31
$GPRMC,183823.000,A,5553.4175,N,03737.4468,E,24.86,113.26,241214,,,A*5D
$GPGGA,183824.000,5553.4148,N,03737.4587,E,1,06,2.5,175.0,M,14.5,M,,0000*5B
$GPGSA,A,3,30,13,19,07,28,26,,,,,,,5.1,2.5,4.4*31
$GPRMC,183824.000,A,5553.4148,N,03737.4587,E,26.30,110.98,241214,,,A*5D
$GPGGA,183825.000,5553.4121,N,03737.4710,E,1,06,2.5,174.4,M,14.5,M,,0000*5C
$GPGSA,A,3,30,13,19,07,28,26,,,,,,,5.1,2.5,4.4*31
$GPGSV,3,1,12,13,71,252,35,28,66,178,28,30,62,092,36,26,59,284,30*7D
$GPGSV,3,2,12,07,28,092,28,19,23,044,24,05,22,235,28,15,19,308,28*7E
$GPGSV,3,3,12,27,06,021,,11,04,089,25,17,03,162,30,18,01,345,*71
$GPRMC,183825.000,A,5553.4121,N,03737.4710,E,26.44,109.25,241214,,,A*52
$GPGGA,183826.000,5553.4096,N,03737.4836,E,1,06,2.5,172.5,M,14.5,M,,0000*5E
$GPGSA,A,3,30,13,19,07,28,26,,,,,,,5.1,2.5,4.4*31
$GPRMC,183826.000,A,5553.4096,N,03737.4836,E,25.72,106.78,241214,,,A*56
$GPGGA,183827.000,5553.4074,N,03737.4959,E,1,06,2.5,171.2,M,14.5,M,,0000*5F
$GPGSA,A,3,30,13,19,07,28,26,,,,,,,5.1,2.5,4.4*31
$GPRMC,183827.000,A,5553.4074,N,03737.4959,E,25.10,105.76,241214,,,A*5A
$GPGGA,183828.000,5553.4057,N,03737.5082,E,1,05,3.2,171.5,M,14.5,M,,0000*5D
$GPGSA,A,3,30,13,07,28,26,,,,,,,,5.5,3.2,4.4*3B
$GPRMC,183828.000,A,5553.4057,N,03737.5082,E,24.68,102.66,241214,,,A*52
$GPGGA,183829.000,5553.4028,N,03737.5198,E,1,06,2.5,170.2,M,14.5,M,,0000*5D
$GPGSA,A,3,30,13,19,07,28,26,,,,,,,5.1,2.5,4.4*31
$GPRMC,183829.000,A,5553.4028,N,03737.5198,E,24.61,105.09,241214,,,A*56
$GPGGA,183830.000,5553.4007,N,03737.5313,E,1,06,2.5,169.6,M,14.5,M,,0000*55
$GPGSA,A,3,30,13,19,07,28,26,,,,,,,5.1,2.5,4.4*31
$GPGSV,3,1,12,13,71,252,36,28,66,178,31,30,62,092,26,26,59,284,31*76
$GPGSV,3,2,12,07,28,092,35,19,23,044,36,05,22,235,32,15,19,308,35*76
$GPGSV,3,3,12,27,06,021,,11,04,089,29,17,03,162,23,18,01,345,*7F
$GPRMC,183830.000,A,5553.4007,N,03737.5313,E,23.94,103.16,241214,,,A*57
$GPGGA,183831.000,5553.3983,N,03737.5418,E,1,06,2.5,166.4,M,14.5,M,,0000*57
$GPGSA,A,3,30,13,19,07,28,26,,,,,,,5.1,2.5,4.4*31
$GPRMC,183831.000,A,5553.3983,N,03737.5418,E,23.21,104.26,241214,,,A*52
$GPGGA,183832.000,5553.3960,N,03737.5514,E,1,06,2.5,161.9,M,14.5,M,,0000*5E
$GPGSA,A,3,30,13,19,07,28,26,,,,,,,5.1,2.5,4.4*31
$GPRMC,183832.000,A,5553.3960,N,03737.5514,E,22.13,103.38,241214,,,A*59
$GPGGA,183833.000,5553.3938,N,03737.5609,E,1,06,2.5,157.5,M,14.5,M,,0000*54
$GPGSA,A,3,30,13,19,07,28,26,,,,,,,5.1,2.5,4.4*31
$GPRMC,183833.000,A,5553.3938,N,03737.5609,E,21.77,102.76,241214,,,A*50
$GPGGA,183834.000,5553.3921,N,03737.5710,E,1,06,2.5,155.5,M,14.5,M,,0000*50
$GPGSA,A,3,30,13,19,07,28,26,,,,,,,5.1,2.5,4.4*31
$GPRMC,183834.000,A,5553.3921,N,03737.5710,E,21.64,102.48,241214,,,A*59
$GPGGA,183835.000,5553.3904,N,03737.5804,E,1,06,2.5,151.3,M,14.5,M,,0000*5E
$GPGSA,A,3,30,13,19,07,28,26,,,,,,,5.1,2.5,4.4*31
$GPGSV,3,1,12,13,71,252,37,28,66,178,33,30,62,092,28,26,59,284,30*7A
$GPGSV,3,2,12,07,28,092,40,19,23,044,35,05,22,235,32,15,19,308,35*77
$GPGSV,3,3,12,27,06,021,34,11,04,089,28,17,03,162,23,18,01,345,*79
$GPRMC,183835.000,A,5553.3904,N,03737.5804,E,21.37,102.94,241214,,,A*52
$GPGGA,183836.000,5553.3888,N,03737.5898,E,1,06,2.5,147.9,M,14.5,M,,0000*50
$GPGSA,A,3,30,13,19,07,28,26,,,,,,,5.1,2.5,4.4*31
$GPRMC,183836.000,A,5553.3888,N,03737.5898,E,20.54,103.13,241214,,,A*5B
$GPGGA,183837.000,5553.3875,N,03737.5990,E,1,06,2.5,145.3,M,14.5,M,,0000*52
$GPGSA,A,3,30,13,19,07,28,26,,,,,,,5.1,2.5,4.4*31
$GPRMC,183837.000,A,5553.3875,N,03737.5990,E,19.55,102.51,241214,,,A*5D
$GPGGA,183838.000,5553.3859,N,03737.6074,E,1,06,2.5,141.4,M,14.5,M,,0000*50
$GPGSA,A,3,30,13,19,07,28,26,,,,,,,5.1,2.5,4.4*31
$GPRMC,183838.000,A,5553.3859,N,03737.6074,E,18.40,101.46,241214,,,A*5C
$GPGGA,183839.000,5553.3845,N,03737.6155,E,1,06,2.5,137.4,M,14.5,M,,0000*5F
$GPGSA,A,3,30,13,19,07,28,26,,,,,,,5.1,2.5,4.4*31
$GPRMC,183839.000,A,5553.3845,N,03737.6155,E,17.24,100.51,241214,,,A*58
$GPGGA,183840.000,5553.3831,N,03737.6236,E,1,06,2.5,134.3,M,14.5,M,,0000*50
$GPGSA,A,3,30,13,19,07,28,26,,,,,,,5.1,2.5,4.4*31
$GPGSV,3,1,12,13,71,252,37,28,66,178,33,30,62,092,23,26,59,284,22*72
$GPGSV,3,2,12,07,28,092,41,19,23,044,28,05,22,235,32,15,19,308,28*76
$GPGSV,3,3,12,27,06,021,34,11,04,089,28,17,03,162,29,18,01,345,*73
$GPRMC,183840.000,A,5553.3831,N,03737.6236,E,16.70,102.54,241214,,,A*54
$GPGGA,183841.000,5553.3808,N,03737.6302,E,1,06,2.5,128.5,M,14.5,M,,0000*56
$GPGSA,A,3,30,13,19,07,28,26,,,,,,,5.1,2.5,4.4*31
$GPRMC,183841.000,A,5553.3808,N,03737.6302,E,16.33,105.42,241214,,,A*5E
$GPGGA,183842.000,5553.3789,N,03737.6370,E,1,06,2.5,124.5,M,14.5,M,,0000*5A
$GPGSA,A,3,30,13,19,07,28,26,,,,,,,5.1,2.5,4.4*31
$GPRMC,183842.000,A,5553.3789,N,03737.6370,E,15.01,105.98,241214,,,A*5B
$GPGGA,183843.000,5553.3775,N,03737.6437,E,1,06,2.5,122.7,M,14.5,M,,0000*58
$GPGSA,A,3,30,13,19,07,28,26,,,,,,,5.1,2.5,4.4*31
$GPRMC,183843.000,A,5553.3775,N,03737.6437,E,14.00,109.10,241214,,,A*51
$GPGGA,183844.000,5553.3772,N,03737.6506,E,1,06,2.5,123.3,M,14.5,M,,0000*5E
$GPGSA,A,3,30,13,19,07,28,26,,,,,,,5.1,2.5,4.4*31
$GPRMC,183844.000,A,5553.3772,N,03737.6506,E,11.97,103.85,241214,,,A*5F
$GPGGA,183845.000,5553.3770,N,03737.6567,E,1,06,2.5,123.4,M,14.5,M,,0000*5D
$GPGSA,A,3,30,13,19,07,28,26,,,,,,,5.1,2.5,4.4*31
$GPGSV,3,1,12,13,71,251,32,28,66,178,34,30,62,092,32,26,59,284,37*77
$GPGSV,3,2,12,07,28,092,41,19,23,044,28,05,22,235,32,15,19,308,33*7C
$GPGSV,3,3,12,27,06,021,27,11,04,089,34,17,03,162,24,18,01,345,*71
$GPRMC,183845.000,A,5553.3770,N,03737.6567,E,11.16,102.58,241214,,,A*53
$GPGGA,183846.000,5553.3768,N,03737.6624,E,1,06,2.5,124.0,M,14.5,M,,0000*50
$GPGSA,A,3,30,13,19,07,28,26,,,,,,,5.1,2.5,4.4*31
$GPRMC,183846.000,A,5553.3768,N,03737.6624,E,10.03,105.76,241214,,,A*53
$GPGGA,183847.000,5553.3769,N,03737.6676,E,1,06,2.5,124.8,M,14.5,M,,0000*5F
$GPGSA,A,3,30,13,19,07,28,26,,,,,,,5.1,2.5,4.4*31
$GPRMC,183847.000,A,5553.3769,N,03737.6676,E,8.79,101.55,241214,,,A*65
$GPGGA,183848.000,5553.3768,N,03737.6720,E,1,06,2.5,124.8,M,14.5,M,,0000*53
$GPGSA,A,3,30,13,19,07,28,26,,,,,,,5.1,2.5,4.4*31
$GPRMC,183848.000,A,5553.3768,N,03737.6720,E,7.88,103.13,241214,,,A*68
$GPGGA,183849.000,5553.3768,N,03737.6762,E,1,06,2.5,125.6,M,14.5,M,,0000*5B
$GPGSA,A,3,30,13,19,07,28,26,,,,,,,5.1,2.5,4.4*31
$GPRMC,183849.000,A,5553.3768,N,03737.6762,E,7.29,102.07,241214,,,A*60
$GPGGA,183850.000,5553.3770,N,03737.6803,E,1,06,2.5,126.8,M,14.5,M,,0000*5F
$GPGSA,A,3,30,13,19,07,28,26,,,,,,,5.1,2.5,4.4*31
$GPGSV,3,1,12,13,71,251,31,28,66,178,34,30,62,092,32,26,59,284,38*7B
$GPGSV,3,2,12,07,28,092,40,19,23,044,34,05,22,235,32,15,19,308,33*70
$GPGSV,3,3,12,27,06,021,30,11,04,089,34,17,03,162,22,18,01,345,27*74
$GPRMC,183850.000,A,5553.3770,N,03737.6803,E,6.81,102.85,241214,,,A*60
$GPGGA,183851.000,5553.3770,N,03737.6841,E,1,06,2.5,127.9,M,14.5,M,,0000*58
$GPGSA,A,3,30,13,19,07,28,26,,,,,,,5.1,2.5,4.4*31
$GPRMC,183851.000,A,5553.3770,N,03737.6841,E,6.74,100.78,241214,,,A*6D
$GPGGA,183852.000,5553.3770,N,03737.6881,E,1,06,2.5,129.1,M,14.5,M,,0000*51
$GPGSA,A,3,30,13,19,07,28,26,,,,,,,5.1,2.5,4.4*31
$GPRMC,183852.000,A,5553.3770,N,03737.6881,E,7.38,99.81,241214,,,A*5C
$GPGGA,183853.000,5553.3772,N,03737.6920,E,1,06,2.5,130.1,M,14.5,M,,0000*50
$GPGSA,A,3,30,13,19,07,28,26,,,,,,,5.1,2.5,4.4*31
$GPRMC,183853.000,A,5553.3772,N,03737.6920,E,6.79,97.80,241214,,,A*5E
$GPGGA,183854.000,5553.3773,N,03737.6957,E,1,06,2.5,131.3,M,14.5,M,,0000*55
$GPGSA,A,3,30,13,19,07,28,26,,,,,,,5.1,2.5,4.4*31
$GPRMC,183854.000,A,5553.3773,N,03737.6957,E,6.37,101.40,241214,,,A*60
$GPGGA,183855.000,5553.3774,N,03737.6990,E,1,06,2.5,132.3,M,14.5,M,,0000*5B
$GPGSA,A,3,30,13,19,07,28,26,,,,,,,5.1,2.5,4.4*31
$GPGSV,3,1,12,13,71,251,31,28,66,178,33,30,62,092,36,26,59,284,38*78
$GPGSV,3,2,12,07,28,092,41,19,23,044,35,05,22,235,32,15,19,308,33*70
$GPGSV,3,3,12,27,06,021,32,11,04,089,33,17,03,162,22,18,01,345,17*72
$GPRMC,183855.000,A,5553.3774,N,03737.6990,E,5.70,97.50,241214,,,A*52
$GPGGA,183856.000,5553.3774,N,03737.7019,E,1,06,2.5,133.3,M,14.5,M,,0000*50
$GPGSA,A,3,30,13,19,07,28,26,,,,,,,5.1,2.5,4.4*31
$GPRMC,183856.000,A,5553.3774,N,03737.7019,E,5.17,97.44,241214,,,A*5C
$GPGGA,183857.000,5553.3775,N,03737.7046,E,1,06,2.5,134.2,M,14.5,M,,0000*5C
$GPGSA,A,3,30,13,19,07,28,26,,,,,,,5.1,2.5,4.4*31
$GPRMC,183857.000,A,5553.3775,N,03737.7046,E,4.56,95.75,241214,,,A*52
$GPGGA,183858.000,5553.3775,N,03737.7071,E,1,06,2.5,135.0,M,14.5,M,,0000*54
$GPGSA,A,3,30,13,19,07,28,26,,,,,,,5.1,2.5,4.4*31
$GPRMC,183858.000,A,5553.3775,N,03737.7071,E,4.62,98.07,241214,,,A*56
$GPGGA,183859.000,5553.3776,N,03737.7097,E,1,06,2.5,135.9,M,14.5,M,,0000*57
$GPGSA,A,3,30,13,19,07,28,26,,,,,,,5.1,2.5,4.4*31
$GPRMC,183859.000,A,5553.3776,N,03737.7097,E,5.16,95.32,241214,,,A*55
$GPGGA,183900.000,5553.3776,N,03737.7128,E,1,06,2.5,136.7,M,14.5,M,,0000*52
